St_ID,BGC,Latitude,Longitude,Elevation,Name,AHM,MAP,MAT,MCMT,MSP,MWMT,PPT_at,PPT_sm,PPT_sp,PPT_wt,SHM,Tave_at,Tave_sm,Tave_sp,Tave_wt,TD,Tmax_at,Tmax_sm,Tmax_sp,Tmax_wt,Tmin_at,Tmin_sm,Tmin_sp,Tmin_wt
08GA071,CWHds1,50.11944,-123.436096,220,ELAHO RIVER,-4.232826318,1094,-0.4,0.25,316,-0.65,343,223,227,302,-23.09082969,-0.666666667,-0.533333333,-0.166666667,-0.233333333,-0.9,-1.733333333,-0.866666667,-0.666666667,-0.933333333,0.4,-0.2,0.433333333,0.466666667
08GF005,CWHvm1,51.06831,-126.358398,190,KIPPAN CREEK,NA,NA,0.208333333,0.1,NA,1.4,NA,NA,NA,NA,NA,0.033333333,1.066666667,0.233333333,-0.4,1.2,0.133333333,1.533333333,1.066666667,-0.133333333,-0.066666667,0.6,-0.6,-0.666666667
08GF006,CWHvm1,50.79689,-126.009598,12,MCALLISTER C,NA,NA,0.070833333,0.6,NA,-0.05,NA,NA,NA,NA,NA,0.066666667,-0.116666667,0.216666667,0.216666667,-0.65,-0.5,-0.8,0,-0.033333333,0.633333333,0.566666667,0.333333333,0.466666667
08HA069,CWHvm1,48.63694,-124.291901,310,RENFREW CREE,0.117895436,-120,-0.320833333,0.05,249,-0.45,-55,184,82,-332,-11.4877551,-0.333333333,-0.5,-0.616666667,-0.033333333,-0.5,-0.8,-1.033333333,-1.066666667,-0.466666667,0.233333333,0.133333333,-0.066666667,0.4
08HA072,CWHxm2,48.93389,-124.25,432,COTTONWOOD C,-1.274536624,659,0.145833333,0.55,200,-0.2,72,133,150,304,-13.08709677,-0.133333333,-0.116666667,-0.033333333,0.566666667,-0.75,-0.066666667,0.066666667,0.033333333,0.433333333,-0.1,-0.2,0,0.7
08HA700,CWHvm1,48.64,-124.599998,299,WALBRAN CREE,0.492494824,-210,0.495833333,0.7,83,0.8,-109,58,-53,-106,-1.995461201,0.25,0.6,0.466666667,0.866666667,0.1,1.033333333,1.366666667,0.9,1.333333333,-0.533333333,-0.166666667,0.033333333,0.3
08HF012,CWHvh1,50.735,-127.883102,184,PUGH CREEK N,0.244615093,-114,0.091666667,0,-19,0.25,-3,-4,-74,-34,0.742359249,0.2,0.133333333,0.066666667,0.066666667,0.15,0.5,0.066666667,0.066666667,0.333333333,-0.1,0.1,0.066666667,-0.1
08HF013,CWHvm1,50.51194,-127.843102,12,SIMPSON CREE,-0.858431036,466,-0.170833333,-0.45,197,-0.15,116,134,69,147,-6.40871731,-0.316666667,-0.166666667,-0.05,-0.25,0.3,-0.066666667,0.266666667,0.233333333,-0.1,-0.566666667,-0.6,-0.433333333,-0.5
101006,CWHxm1,48.809722,-123.923615,397,CHARTER,NA,NA,-0.704166667,-1.1,NA,-0.5,NA,NA,NA,NA,NA,-0.766666667,-0.383333333,-0.583333333,-1.083333333,0.6,-0.633333333,0.466666667,0.033333333,-0.833333333,-1,-1.233333333,-1.2,-1.233333333
101008,CWHxm1,48.784722,-123.893333,211,SAHTLAM,NA,NA,-0.083333333,-0.55,-3,0.05,NA,-1,NA,NA,1.538888889,-0.183333333,0.233333333,-0.083333333,-0.5,0.6,-0.666666667,0.3,-0.1,-1.133333333,0.3,0.166666667,0.033333333,0.233333333
101009,CWHxm2,48.6375,-123.720833,306,SHAWN LK CFS,NA,NA,0.466666667,0.05,-2,0.7,NA,0,NA,NA,4.355329949,0.583333333,0.466666667,0.45,0.166666667,0.65,0.6,0.1,0.233333333,0.1,0.666666667,0.933333333,0.666666667,0.133333333
101023,CWHxm1,48.621389,-123.679169,323,SHAWNIGAN LK,NA,NA,-0.179166667,-1.05,NA,0.3,NA,NA,NA,NA,NA,-0.316666667,0.4,-0.1,-0.7,1.35,-0.433333333,1.033333333,0,-1.1,-0.1,-0.233333333,-0.2,-0.2
101024,CWHvm1,48.864167,-124.601669,102,NITINAT FP,NA,NA,NA,NA,NA,NA,NA,-16,NA,NA,NA,NA,NA,NA,NA,NA,NA,NA,0.466666667,NA,NA,NA,NA,NA
1010720,CWHmm1,48.5,-124,434,BEAR CREEK,-0.662128089,337,-0.158333333,0.1,67,-0.35,87,26,105,119,-5.88914405,-0.016666667,-0.266666667,-0.183333333,-0.166666667,-0.45,-0.4,-0.766666667,-0.5,-0.566666667,0.366666667,0.133333333,0.133333333,0.333333333
1010780,CWHxm1,48.333333,-123.633331,25,BECHER BAY,NA,NA,-0.104166667,0.25,NA,0.1,NA,NA,NA,NA,NA,-0.15,-0.133333333,-0.3,0.166666667,-0.15,-0.1,0,-0.366666667,0.166666667,-0.3,-0.366666667,-0.233333333,0.166666667
1011500,CDFmm,48.93418,-123.7407,83,CHEMAINUS,-2.024695954,203,0.783333333,0.85,21,0.75,58,14,35,95,-6.808080808,0.716666667,0.766666667,0.766666667,0.883333333,-0.1,0.4,0.366666667,0.466666667,0.566666667,1.133333333,1.266666667,1.166666667,1.2
1011920,CDFmm,48.533333,-123.366669,18,CORDOVA BAY,-1.923464912,60,-0.275,-0.15,7,-0.4,16,9,2,33,-9.117266187,-0.35,-0.366666667,-0.35,-0.233333333,-0.15,-0.5,-0.133333333,-0.266666667,-0.233333333,-0.1,-0.6,-0.433333333,-0.233333333
1011920,CDFmm,48.5333,-123.366699,18,CORDOVA BAY,-1.923464912,60,-0.275,-0.15,7,-0.4,16,9,2,33,-9.117266187,-0.35,-0.366666667,-0.35,-0.233333333,-0.15,-0.5,-0.133333333,-0.266666667,-0.233333333,-0.1,-0.6,-0.433333333,-0.233333333
1011922,CDFmm,48.516667,-123.366669,17,CORDOVA BAY,-0.792295957,24,-0.041666667,0.2,7,-0.2,12,11,6,-4,-7.786956522,-0.15,-0.183333333,-0.15,0.116666667,-0.4,-0.733333333,-0.666666667,-0.533333333,-0.233333333,0.533333333,0.3,0.233333333,0.466666667
1012010,CDFmm,48.716667,-123.550003,0,COWICHAN BAY,-0.042334322,-24,-0.525,-0.75,7,-0.3,-28,11,12,-18,-6.792682927,-0.2,-0.516666667,-0.6,-0.583333333,0.55,-0.4,-0.866666667,-0.766666667,-0.9,0,-0.066666667,-0.433333333,-0.266666667
1012010,CDFmm,48.71,-123.550003,0,COWICHAN BAY,-0.042334322,-24,-0.525,-0.75,7,-0.3,-28,11,12,-18,-6.792682927,-0.2,-0.516666667,-0.6,-0.583333333,0.55,-0.4,-0.866666667,-0.766666667,-0.9,0,-0.066666667,-0.433333333,-0.266666667
1012040,CWHxm2,48.82444,-124.133301,186,COWICHAN LAK,-1.353300478,309,0.245833333,0.5,41,0.15,74,20,75,139,-8.933333333,0.35,0.033333333,0.15,0.35,-0.35,0.4,-0.166666667,0.1,0.666666667,0.4,0.233333333,0.1,0.133333333
1012055,CWHxm1,48.82944,-124.0522,179,LAKE COWICHA,-0.025069821,49,0.333333333,0.35,10,0.2,-4,2,29,22,-1.681818182,0.4,0.166666667,0.4,0.466666667,-0.15,0.8,0.366666667,0.633333333,0.966666667,0.1,-0.033333333,0.166666667,-0.033333333
1012475,CDFmm,48.4244,-123.225098,11,DISCOVERY IS,NA,NA,0.825,2,NA,-0.6,NA,NA,NA,NA,NA,1.2,-0.433333333,0.816666667,1.716666667,-2.5,-0.433333333,-2.166666667,-0.633333333,0.633333333,2.833333333,1.2,2.366666667,2.8
1012570,CDFmm,48.766667,-123.683334,11,DUNCAN FORES,1.105378361,-104,-0.666666667,-0.8,0,-0.45,-32,-1,-17,-55,-2.962130178,-0.716666667,-0.5,-0.483333333,-0.766666667,0.35,0.366666667,0,-0.033333333,-0.133333333,-1.8,-1.1,-0.933333333,-1.4
1012573,CDFmm,48.73472,-123.727501,109,DUNCAN KELVI,-0.818034374,73,0.041666667,0,4,0.1,11,2,4,55,-2.043243243,0.183333333,0.033333333,-0.083333333,0.033333333,0.1,1.166666667,0.866666667,0.733333333,0.566666667,-0.8,-0.8,-0.9,-0.6
1012628,CWHxm1,48.35,-123.629997,117,EAST SOOKE A,-0.259970888,28,0.283333333,-0.05,1,0.55,6,1,6,16,2.809677419,0.266666667,0.483333333,0.116666667,0.166666667,0.6,1.2,1.333333333,1,0.833333333,-0.666666667,-0.366666667,-0.666666667,-0.6
1012628,CWHxm1,48.35,-123.633331,61,EAST SOOKE A,-0.259970888,28,0.283333333,-0.05,1,0.55,6,1,6,16,2.809677419,0.266666667,0.483333333,0.116666667,0.166666667,0.6,1.2,1.333333333,1,0.833333333,-0.666666667,-0.366666667,-0.666666667,-0.6
1012655,CDFmm,48.516667,-123.383331,89,ELK LAKE,-0.807647274,35,0.108333333,-0.05,10,0.25,8,12,9,7,-6.755172414,0.166666667,0.116666667,0.05,-0.1,0.3,0,0.266666667,0.1,-0.066666667,0.333333333,-0.033333333,-0.1,-0.133333333
1012710,CDFmm,48.43197,-123.439301,0,ESQUIMALT HA,-11.71567696,825,-0.05,0.45,118,-0.55,273,64,137,352,-64.01538462,0.033333333,-0.466666667,-0.083333333,0.316666667,-1,-0.866666667,-1.966666667,-1,0.066666667,0.833333333,0.933333333,0.833333333,0.566666667
1012710,CDFmm,48.43,-123.43,21,ESQUIMALT HA,-11.71567696,825,-0.05,0.45,118,-0.55,273,64,137,352,-64.01538462,0.033333333,-0.466666667,-0.083333333,0.316666667,-1,-0.866666667,-1.966666667,-1,0.066666667,0.833333333,0.933333333,0.833333333,0.566666667
1013051,CDFmm,48.87172,-123.498199,59,GANGES MANSE,-0.115120275,7,0.058333333,0,-11,0.15,-6,0,6,7,8.095705521,0.15,0.216666667,-0.15,-0.083333333,0.25,0.5,0.7,0.233333333,0.3,-0.3,-0.266666667,-0.433333333,-0.366666667
10130MN,CDFmm,48.98528,-123.573601,6,GALIANO NORT,1.426504752,-61,0.175,0.6,-17,-0.15,-35,2,-12,-16,9.331707317,0.316666667,-0.216666667,-0.016666667,0.516666667,-0.75,-0.366666667,-0.633333333,-0.666666667,-0.2,1,0.3,0.633333333,1.133333333
101317,CDFmm,48.820556,-123.59111,0,MAPLE BAY,6.162765547,-219,1.129166667,1.2,-23,0.95,-59,-6,-48,-106,25.73093525,0.95,0.866666667,0.816666667,1.883333333,-0.25,0.166666667,0.066666667,0.133333333,1.4,1.733333333,1.666666667,1.5,2.466666667
101322,CDFmm,48.754444,-123.749168,93,ZANATTA GRAP,0.7030104,-86,-0.508333333,-0.9,-22,0.2,-42,-10,-35,1,14.22839506,-0.75,-0.25,-0.533333333,-0.5,1.1,-0.2,-0.133333333,-0.233333333,-0.133333333,-1.3,-0.366666667,-0.833333333,-0.866666667
1013720,CDFmm,48.6,-123.349998,55,JAMES ISLAND,1.923016905,-50,0.15,0.2,-4,0.15,-19,7,-10,-28,5.614173228,0.233333333,0.116666667,0.2,0.25,-0.15,-0.566666667,-0.366666667,-0.333333333,-0.333333333,1.033333333,0.5,0.833333333,0.833333333
101402,CWHvm1,48.451389,-124.048615,369,FEIN CK,NA,NA,0.3125,-0.15,68,-0.05,NA,46,17,-72,-6.76744186,0.3,-0.016666667,0.316666667,0.55,0,0.066666667,0.1,0.133333333,0.4,0.433333333,-0.133333333,0.4,0.7
101405,CWHvm1,48.585,-124.078888,116,SAN JUAN,0.394152745,-283,-0.9625,-1.05,-53,-0.25,-94,-32,-50,-107,5.953293413,-2,-0.3,-0.65,-0.9,0.8,-3.2,0.4,-0.266666667,-1.466666667,-0.8,-1,-1.033333333,-0.433333333
101413,CWHmm2,48.888611,-124.168053,777,MEADE CK,NA,NA,1.345833333,1,NA,0.8,NA,NA,NA,NA,NA,1.35,0.85,1.566666667,1.616666667,-0.3,1,0.633333333,1.2,1.5,1.7,1.166666667,1.933333333,1.633333333
101414,CWHxm2,48.902778,-124.243614,345,COTTONWOOD C,NA,NA,NA,NA,NA,0.6,NA,NA,NA,NA,NA,0.3,0.516666667,0.716666667,NA,NA,0.133333333,1.133333333,1.033333333,NA,0.466666667,-0.2,0.3,NA
101415,CWHvm1,48.634722,-124.253059,100,HARRIS CK,NA,NA,NA,NA,64,0.75,61,1,58,NA,-3.679338843,0.45,0.666666667,0.433333333,NA,NA,0.8,1.7,1.133333333,NA,0,-0.466666667,-0.266666667,NA
1014820,CWHxm1,48.57492,-123.5299,370,MALAHAT,1.182505086,-34,0.708333333,0.8,61,1.1,-2,33,-7,-58,-21.01759657,0.783333333,1.033333333,0.583333333,0.633333333,0.3,0.5,0.7,0.4,0.633333333,1.066666667,1.366666667,0.666666667,0.633333333
1014931,CDFmm,48.85,-123.316666,40,MAYNE ISLAND,0.053435414,-9,-0.133333333,0.05,-9,-0.5,-21,2,11,-1,2.632258065,-0.016666667,-0.466666667,-0.183333333,0.133333333,-0.55,0.133333333,-0.1,-0.033333333,0.166666667,-0.166666667,-0.833333333,-0.333333333,0.1
1015638,CDFmm,48.8125,-123.316704,22,NORTH PENDER,-1.463412788,51,-0.016666667,0.2,0,-0.4,0,6,18,27,-2.784615385,0.15,-0.366666667,-0.083333333,0.233333333,-0.6,0.1,-0.166666667,-0.133333333,0.233333333,0.2,-0.566666667,-0.033333333,0.233333333
1016120,CDFmm,48.766667,-123.300003,21,PENDER ISLAN,-0.684627638,37,0.354166667,0.45,9,0.15,-6,13,23,7,-5.924050633,0.566666667,0.033333333,0.55,0.466666667,-0.3,0.1,-0.133333333,0.333333333,0.133333333,0.933333333,0.2,0.666666667,0.7
1016203,CWHxm2,48.4,-123.98333,49,POINT-NO-POI,NA,NA,0.5375,1.25,NA,-0.35,NA,NA,NA,NA,NA,0.666666667,-0.366666667,0.566666667,1.283333333,-1.6,0,-1.1,0.066666667,1.266666667,1.233333333,0.366666667,1.066666667,1.3
1016335,CWHvm1,48.59139,-124.325798,10,PORT RENFREW,-0.346551235,184,-0.2875,-0.4,45,0.05,49,11,70,54,-2.673745174,-0.416666667,-0.033333333,-0.25,-0.35,0.45,-0.866666667,-0.233333333,-0.566666667,-0.5,0.033333333,0.266666667,0.066666667,-0.1
1016641,CDFmm,48.3,-123.533333,0,RACE ROCKS L,NA,NA,-0.454166667,1.15,NA,-2.4,NA,NA,NA,NA,NA,-0.116666667,-2.183333333,-0.4,0.883333333,-3.55,-1.933333333,-4.166666667,-2.166666667,-0.3,1.6,-0.2,1.466666667,2.166666667
1016780,CWHxm2,48.4167,-124.050003,0,RIVER JORDAN,-1.399922696,264,-0.195833333,0.25,61,-0.25,94,20,56,94,-13.04174757,-0.316666667,-0.266666667,-0.466666667,0.066666667,-0.5,-0.3,-0.033333333,-0.7,0.366666667,-0.333333333,-0.5,-0.133333333,-0.133333333
1016780,CWHxm2,48.416667,-124.050003,0,RIVER JORDAN,-1.399922696,264,-0.195833333,0.25,61,-0.25,94,20,56,94,-13.04174757,-0.316666667,-0.266666667,-0.466666667,0.066666667,-0.5,-0.3,-0.033333333,-0.7,0.366666667,-0.333333333,-0.5,-0.133333333,-0.133333333
1016940,CDFmm,48.62167,-123.4189,70,SAANICHTON C,-0.376248164,9,-0.120833333,0,13,-0.15,-5,14,7,-7,-11.7620915,-0.016666667,-0.133333333,-0.166666667,0.033333333,-0.25,-0.266666667,-0.6,-0.5,0.066666667,0.133333333,0.233333333,0.166666667,0
1016942,CDFmm,48.5,-123.400002,29,SAANICH DENS,NA,33,NA,-0.85,8,NA,10,14,8,1,NA,-0.366666667,NA,-0.333333333,-0.666666667,NA,0.633333333,NA,0.733333333,-0.033333333,-1.366666667,NA,-1.4,-1.3
1016990,CDFmm,48.85,-123.5,13,SALTSPRING I,-2.115503876,108,0.008333333,-0.1,19,0,21,12,35,41,-9.59015544,0.233333333,-0.166666667,-0.083333333,-0.05,0.1,-0.1,-0.666666667,-0.533333333,-0.066666667,0.566666667,0.433333333,0.366666667,-0.033333333
1016992,CDFmm,48.816667,-123.48333,128,SALTSPRING I,-2.102156676,69,-0.779166667,-0.8,1,-0.85,7,2,36,24,-5.501169591,-1.1,-0.75,-0.65,-0.816666667,-0.05,-0.433333333,-0.1,0.1,-0.366666667,-1.666666667,-1.4,-1.4,-1.266666667
1016995,CDFmm,48.88806,-123.546402,45,SALTSPRING S,0.863394683,-22,0.4,0.3,-10,0.65,-12,0,-7,-4,10.2902439,0.583333333,0.516666667,0.2,0.2,0.35,-0.233333333,-0.166666667,-0.4,-0.266666667,1.3,1.3,0.8,0.566666667
10169DK,CDFmm,48.516667,-123.416664,113,SAANICH DOM,0.573260073,-4,0.441666667,-0.2,6,1.2,-7,8,-6,0,3.671328671,0.533333333,1.083333333,0.216666667,-0.166666667,1.5,0.233333333,0.7,-0.033333333,-0.4,0.833333333,1.366666667,0.366666667,0.066666667
1017000,CDFmm,48.883333,-123.566666,20,SALTSPRING V,1.423036649,-55,0.25,0.45,-6,0.25,-30,2,3,-30,5.537349398,0.133333333,0.25,0.266666667,0.45,-0.1,0.033333333,0.166666667,-0.066666667,0.433333333,0.233333333,0.333333333,0.5,0.566666667
1017098,CDFmm,48.77528,-123.1278,190,SATURNA CAPM,0.780208333,-16,0.204166667,0.3,4,0.4,-3,6,3,-22,-0.381395349,0.316666667,0.283333333,0.15,0.166666667,0.1,-0.166666667,-0.3,-0.366666667,-0.133333333,0.9,0.766666667,0.666666667,0.466666667
1017099,CDFmm,48.77531,-123.127899,192,SATURNA CAPM,1.837232219,-38,0.479166667,0.45,-16,0.75,-25,0,2,-15,15.10263158,0.6,0.55,0.466666667,0.5,0.3,0.166666667,0.266666667,0.366666667,0.2,0.933333333,0.733333333,0.666666667,0.8
1017101,CDFmm,48.78391,-123.044701,13,SATURNA ISLA,3.555060353,-76,0.633333333,1.4,-8,0.2,-27,4,1,-54,5.934969325,0.866666667,0.1,0.3,1.066666667,-1.2,-0.633333333,-1.166666667,-1.133333333,0.1,2.366666667,1.366666667,1.733333333,2.133333333
1017101,CDFmm,48.7833,-123.050003,17,SATURNA ISLA,3.555060353,-76,0.633333333,1.4,-8,0.2,-27,4,1,-54,5.934969325,0.866666667,0.1,0.3,1.066666667,-1.2,-0.633333333,-1.166666667,-1.133333333,0.1,2.366666667,1.366666667,1.733333333,2.133333333
1017230,CWHxm1,48.64722,-123.626701,156,SHAWNIGAN LA,0.3680834,-29,-0.0125,-0.25,2,0.2,-21,5,6,-19,0.3,0.15,0.25,-0.1,-0.25,0.45,0.366666667,0.166666667,0.166666667,0.1,-0.166666667,0.233333333,-0.366666667,-0.5
1017254,CWHxm2,48.37681,-123.920998,2,SHERINGHAM P,NA,NA,0.133333333,1.25,NA,-1,NA,NA,NA,NA,NA,0.4,-0.983333333,0.066666667,1.05,-2.15,-0.666666667,-2.033333333,-1.166666667,0.533333333,1.366666667,0.166666667,1.3,1.566666667
1017559,CWHxm1,48.416667,-123.633331,316,SOOKE GLINZ,NA,-8,NA,0.1,-1,NA,3,-2,2,-11,NA,-0.183333333,NA,-0.166666667,-0.033333333,NA,0.1,-0.066666667,0.1,0.1,-0.566666667,NA,-0.333333333,-0.066666667
1017610,CDFmm,48.75,-123.216667,55,SOUTH PENDER,-0.090813648,-4,-0.2,0.15,12,-0.6,-6,16,5,-19,-12.45217391,-0.066666667,-0.583333333,-0.15,0.1,-0.65,0,-0.3,-0.2,0.266666667,-0.233333333,-0.866666667,-0.1,-0.066666667
1018598,CDFmm,48.457,-123.304604,63,VICTORIA UNI,8.588870339,-172,0.658333333,1.1,-26,0.6,-44,-6,-34,-88,39.85742574,0.6,0.5,0.55,0.983333333,-0.5,0.733333333,1.033333333,0.633333333,1,0.566666667,0.066666667,0.366666667,0.866666667
1018610,CDFmm,48.416667,-123.316666,18,VICTORIA GON,4.270518747,-96,0.154166667,0.4,-12,-0.65,-7,3,-25,-67,9.396428571,0.416666667,-0.566666667,0.3,0.466666667,-1.05,-0.333333333,-1.4,-0.3,-0.033333333,1.166666667,0.266666667,0.9,0.866666667
1018611,CDFmm,48.41342,-123.325203,64,VICTORIA GON,6.042834395,-130,0.2625,0.75,-22,-0.65,-21,-2,-29,-77,22.1961165,0.566666667,-0.616666667,0.516666667,0.683333333,-1.4,-0.2,-1.366666667,-0.233333333,0.3,1.333333333,0.233333333,1.166666667,1.166666667
1018616,CDFmm,48.516667,-123.51667,219,VICTORIA HIG,-1.729726585,87,-0.266666667,-0.4,14,0.3,39,9,2,38,-8.351533742,-0.45,0.15,-0.316666667,-0.65,0.7,0.166666667,0.9,0.3,-0.3,-0.966666667,-0.6,-1.033333333,-0.9
1018620,CDFmm,48.64694,-123.425797,21,VICTORIA INT,-0.629857997,3,-0.445833333,-0.35,-2,-0.5,-11,3,9,2,-2.060869565,-0.516666667,-0.533333333,-0.5,-0.433333333,-0.15,-0.066666667,-0.4,-0.266666667,0,-0.866666667,-0.566666667,-0.633333333,-0.766666667
1018640,CDFmm,48.433333,-123.316666,22,VICTORIA LAN,NA,NA,0.129166667,0.4,-3,0.15,-7,9,NA,NA,4.354098361,-0.016666667,0.116666667,0.116666667,0.2,-0.15,-0.033333333,0.166666667,0,0.1,0,0.066666667,0.233333333,0.3
1018642,CWHxm2,48.36,-123.75,25,VICTORIA MAR,-0.274193548,-11,-0.5,-0.1,2,-1.15,2,-2,-5,-7,-7.442690058,-0.483333333,-1.166666667,-0.4,-0.05,-1.05,-0.933333333,-1.7,-0.933333333,-0.266666667,-0.033333333,-0.633333333,0.033333333,0.266666667
1018642,CWHxm2,48.366667,-123.75,10,VICTORIA MAR,-0.274193548,-11,-0.5,-0.1,2,-1.15,2,-2,-5,-7,-7.442690058,-0.483333333,-1.166666667,-0.4,-0.05,-1.05,-0.933333333,-1.7,-0.933333333,-0.266666667,-0.033333333,-0.633333333,0.033333333,0.266666667
1018651,CDFmm,48.483333,-123.400002,25,VICTORIA NOR,-0.030066122,-2,-0.129166667,-0.55,-1,0.55,8,7,-10,-6,4.9,-0.083333333,0.316666667,-0.133333333,-0.516666667,1.1,0.766666667,1.233333333,0.833333333,0.066666667,-0.933333333,-0.5,-1.1,-1.1
1018660,CDFmm,48.45,-123.383331,27,VICTORIA TIL,-0.460508542,17,0.020833333,-0.15,0,0.4,11,5,-1,2,2.608527132,-0.166666667,0.3,-0.033333333,-0.116666667,0.55,0.666666667,1.266666667,0.866666667,0.433333333,-1,-0.766666667,-0.933333333,-0.666666667
1018935,CDFmm,48.33972,-123.538597,10,WILLIAM HEAD,0.292988134,-7,0.0875,0.5,-1,0.15,26,5,-2,-36,1.355882353,0,0.2,0.05,0.4,-0.35,-0.633333333,0.133333333,-0.5,-0.033333333,0.633333333,0.266666667,0.5,0.733333333
1018FJ5,CDFmm,48.53383,-123.459099,152,VICTORIA HAR,1.455011893,-3,1.341666667,1.6,1,1.45,14,6,6,-30,8.531034483,1.433333333,1.266666667,1.25,1.616666667,-0.25,1.333333333,1.1,1.266666667,1.633333333,1.433333333,1.333333333,1.233333333,1.6
1019010,CWHxm2,48.883333,-124.216667,426,YOUBOU,1.685291165,-109,2.4875,2.85,8,2.05,-43,11,-20,-58,5.076623377,2.3,2.3,2.383333333,2.866666667,-0.9,2.866666667,2.133333333,2.233333333,3.566666667,1.633333333,2.466666667,2.433333333,2.266666667
101C0ME,CDFmm,48.883333,-123.349998,45,GALIANO SOUT,NA,NA,NA,NA,NA,NA,NA,NA,NA,NA,NA,-0.616666667,NA,NA,NA,NA,-0.366666667,NA,NA,NA,-0.866666667,NA,NA,NA
101HFEE,CDFmm,48.45,-123.260002,0,VICTORIA PHY,0.654851105,-18,-0.058333333,0.7,-1,-0.95,-3,10,-5,-20,-6.042622951,0.016666667,-0.9,-0.016666667,0.466666667,-1.65,-1.033333333,-1.666666667,-0.833333333,-0.333333333,1.166666667,-0.133333333,0.8,1.266666667
101HFEE,CDFmm,48.45,-123.26667,0,VICTORIA PHY,0.654851105,-18,-0.058333333,0.7,-1,-0.95,-3,10,-5,-20,-6.042622951,0.016666667,-0.9,-0.016666667,0.466666667,-1.65,-1.033333333,-1.666666667,-0.833333333,-0.333333333,1.166666667,-0.133333333,0.8,1.266666667
101QFEG,CDFmm,48.45,-123.366669,21,VICTORIA SHO,0.975188917,-14,0.4625,-0.05,-7,0.8,-6,5,-10,-3,13.88099174,0.3,0.75,0.533333333,0.166666667,0.75,0.4,0.933333333,0.866666667,0.333333333,0.2,0.466666667,0.2,0
102001,CWHxm1,49.026667,-123.936386,182,CASSIDY,NA,NA,-0.858333333,-1.45,NA,0.1,NA,NA,NA,NA,NA,-1.2,0,-0.616666667,-1.516666667,1.55,-1.166666667,0.966666667,-0.1,-1.966666667,-1.133333333,-0.966666667,-1.233333333,-1.066666667
102003,CWHxm1,48.993333,-123.884445,252,CHRISTIE RD,NA,NA,-1.079166667,-0.95,NA,-0.9,0,-4,NA,NA,NA,-1.2,-0.883333333,-1.033333333,-1,0.05,-1.433333333,-1.233333333,-1.3,-1.333333333,-0.966666667,-0.533333333,-0.766666667,-0.766666667
102007,MHmm1,49.762222,-125.296387,1229,MT WASHINGTN,NA,NA,NA,NA,NA,NA,NA,NA,NA,NA,NA,NA,NA,NA,NA,NA,NA,NA,NA,NA,NA,NA,NA,NA
102008,CWHxm2,49.109444,-124.034721,477,EXTENSION,NA,NA,-0.083333333,-0.45,NA,0.1,NA,NA,NA,NA,NA,0.05,0.116666667,-0.083333333,-0.316666667,0.45,0.333333333,0.333333333,0.333333333,-0.033333333,-0.233333333,-0.1,-0.5,-0.6
102012,CWHxm2,50.060278,-125.575836,293,MERRILL LAKE,NA,NA,-0.370833333,-1,NA,0,NA,NA,NA,NA,NA,-0.083333333,-0.033333333,-0.416666667,-0.75,1,-0.2,0.066666667,-0.066666667,-0.8,-0.066666667,-0.133333333,-0.666666667,-0.8
102014,CWHxm2,50.176111,-125.576668,251,AMOR LAKE,NA,NA,-0.458333333,-0.4,NA,0.05,78,NA,NA,NA,NA,-0.616666667,-0.016666667,-0.583333333,-0.716666667,0.45,-1.433333333,-0.3,-1.3,-1.266666667,0.3,0.266666667,0.133333333,-0.166666667
102016,CWHxm2,49.951944,-125.481392,312,SNAKEHEAD,NA,NA,-0.9,-0.95,NA,-0.8,NA,NA,NA,NA,NA,-0.85,-0.933333333,-0.883333333,-1.033333333,0.15,-1.666666667,-1.466666667,-1.466666667,-1.533333333,-0.033333333,-0.3,-0.3,-0.533333333
102017,CWHxm1,50.043056,-125.400558,176,JOHN HART,NA,NA,-0.604166667,-0.75,NA,0,NA,NA,NA,NA,NA,-0.65,-0.083333333,-0.75,-0.833333333,0.75,-0.833333333,0,-0.766666667,-1,-0.366666667,-0.066666667,-0.833333333,-0.666666667
102018,CWHxm1,50.110278,-125.399445,43,MENZIES BAY,NA,NA,-0.341666667,-0.55,NA,-0.1,NA,NA,NA,NA,NA,-0.4,-0.116666667,-0.166666667,-0.683333333,0.45,-0.866666667,-0.266666667,-0.466666667,-1.133333333,0.066666667,0.133333333,0.133333333,-0.133333333
102020,CWHxm2,50.1525,-125.30806,214,MORTE LAKE,NA,NA,NA,1.4,NA,0.95,NA,NA,NA,NA,NA,1.25,0.833333333,NA,1.3,-0.35,0.733333333,0.4,NA,0.9,1.666666667,1.266666667,NA,1.8
102022,CWHxm2,50.257778,-125.439163,250,ELK BAY,NA,NA,0.65,0.7,NA,0.55,NA,NA,NA,NA,NA,0.516666667,0.566666667,0.933333333,0.483333333,-0.15,-0.333333333,-0.166666667,0,-0.066666667,1.466666667,1.3,1.966666667,1.033333333
102025,CWHxm2,49.257222,-124.500557,475,FRENCH CREEK,0.620187793,-102,0.208333333,0.2,8,0.3,-65,6,-14,-30,-0.659409594,0.2,0.166666667,0.016666667,0.25,0.2,-0.3,0.1,-0.5,0.033333333,0.6,0.333333333,0.533333333,0.566666667
102026,CWHxm2,50.221389,-125.710281,118,BIG TREE CK,NA,NA,-0.770833333,-1.5,NA,-0.55,NA,NA,NA,NA,NA,-0.65,-0.633333333,-0.416666667,-1.383333333,0.95,-0.033333333,0.3,0.6,-1.3,-1.166666667,-1.566666667,-1.433333333,-1.566666667
102027,CWHxm1,49.526944,-124.918335,245,TSABLE R FP,NA,NA,0.120833333,-0.05,NA,0.65,NA,NA,NA,NA,NA,-0.016666667,0.55,0.216666667,-0.066666667,0.7,-0.233333333,0.766666667,0.033333333,-0.466666667,0.1,0.333333333,0.4,0.333333333
1020270,CWHvm1,50.583333,-126.933334,0,ALERT BAY,0.402845036,-77,-0.2625,0.1,-22,-0.7,-31,-7,-33,-6,0.596531792,-0.283333333,-0.633333333,-0.166666667,0.033333333,-0.8,-0.633333333,-0.8,-0.433333333,-0.233333333,-0.033333333,-0.366666667,0.1,0.3
102033,CWHvm1,50.526944,-126.848053,221,KOKISH CAMP,NA,NA,NA,NA,NA,NA,NA,NA,NA,88,NA,0.283333333,NA,0.25,NA,NA,-0.033333333,NA,0.066666667,NA,0.5,NA,0.533333333,NA
102035,CWHxm2,49.736667,-125.173058,506,ANDERSON LK,NA,NA,NA,NA,29,-0.05,NA,27,NA,NA,-2.482959641,NA,-0.15,NA,NA,NA,NA,-0.633333333,NA,NA,NA,0.433333333,NA,NA
102037,CWHxm2,50.400556,-125.694168,195,WEST THURLOW,NA,NA,NA,-0.1,NA,-0.7,NA,NA,NA,NA,NA,NA,-0.75,NA,-0.1,-0.6,NA,-1.5,NA,-0.833333333,NA,-0.1,NA,0.633333333
102040,CDFmm,49.271944,-124.257774,81,WEIGHILL FAR,NA,NA,NA,0.15,NA,NA,NA,NA,NA,NA,NA,-0.183333333,NA,NA,0.033333333,NA,-0.1,NA,NA,-0.066666667,-0.266666667,NA,NA,0.033333333
102046,CWHxm1,49.866944,-125.301666,186,OYSTER,NA,NA,NA,NA,15,NA,NA,16,NA,NA,NA,-0.216666667,NA,-0.166666667,NA,NA,-0.533333333,-0.133333333,-0.233333333,NA,0.1,NA,-0.1,NA
1020590,CDFmm,49.35028,-124.160301,17,BALLENAS ISL,NA,-229,NA,1.4,-30,0.35,-76,-13,-41,-99,20.30632911,1.166666667,0.216666667,NA,1.316666667,-1.05,0.5,-0.633333333,NA,1,1.833333333,1.166666667,1.866666667,1.533333333
1020590,CDFmm,49.35,-124.166702,0,BALLENAS ISL,NA,-229,NA,1.4,-30,0.35,-76,-13,-41,-99,20.30632911,1.166666667,0.216666667,NA,1.316666667,-1.05,0.5,-0.633333333,NA,1,1.833333333,1.166666667,1.866666667,1.533333333
1020880,CWHxm1,49.85,-125.133331,50,BLACK CREEK,-1.932308953,202,-0.416666667,-0.35,16,-0.55,19,13,50,120,-5.983823529,-0.466666667,-0.566666667,-0.4,-0.233333333,-0.2,-0.1,-0.533333333,0,-0.1,-0.833333333,-0.7,-0.8,-0.466666667
1021260,CWHxm1,50.016667,-125.300003,41,CAMPBELL RIV,-1.021157436,118,-0.15,0,-20,-0.1,-24,-17,46,113,3.870588235,0.05,-0.316666667,-0.35,0.116666667,-0.2,-0.4,-0.633333333,-0.6,0.133333333,0.4,0,-0.1,0.1
1021261,CWHxm1,49.95084,-125.270798,97,CAMPBELL RIV,-0.497256967,46,-0.108333333,-0.05,-14,0.05,-10,-8,11,53,3.322140221,-0.166666667,-0.066666667,-0.2,0,0.1,0.4,-0.033333333,0.1,0.566666667,-0.733333333,-0.1,-0.5,-0.666666667
1021262,CWHxm1,50.066667,-125.316666,98,CAMPBELL RIV,-0.943787336,153,0.4125,0.45,2,0.45,2,-7,33,125,1.080858086,0.633333333,0.3,0.25,0.366666667,0,0.166666667,-0.233333333,-0.2,0.133333333,1,0.933333333,0.7,0.6
1021263,CWHxm1,50.05,-125.316666,142,CAMPBELL RIV,0.172161642,41,0.7,0.75,-15,0.55,-44,-7,59,33,4.913286713,0.75,0.466666667,0.85,0.833333333,-0.3,1.166666667,0.633333333,0.9,1.266666667,0.333333333,0.3,0.8,0.3
1021265,CWHxm1,50.016667,-125.23333,0,CAMPBELL RIV,0.472438163,-27,0.2125,1,-31,-0.45,-10,-22,-22,26,5.847058824,0.433333333,-0.4,0.033333333,0.883333333,-1.45,-0.866666667,-1.933333333,-1.3,0.3,1.733333333,1.133333333,1.366666667,1.466666667
1021266,CWHxm1,49.945,-125.207497,28,CAMPBELL RIV,NA,-49,NA,NA,-46,NA,-33,-28,-16,28,NA,-0.066666667,NA,NA,NA,NA,0.133333333,NA,NA,NA,-0.266666667,NA,NA,NA
102127,CWHmm2,48.947222,-123.986389,808,LOOKOUT LOW,NA,NA,-0.525,-0.15,NA,-1.15,NA,NA,NA,NA,NA,-0.916666667,-0.866666667,-0.366666667,-0.05,-1,-0.233333333,0,0.033333333,0.066666667,-1.5,-1.833333333,-0.766666667,-0.266666667
102128,MHmm1,48.945556,-124.001945,1028,LOOKOUT TOP,NA,NA,-0.145833333,-0.15,NA,0.25,NA,NA,NA,NA,NA,0.133333333,-0.05,-0.6,0.033333333,0.4,-0.566666667,-1.2,-1.666666667,-0.4,0.833333333,1.1,0.366666667,0.566666667
1021320,CWHxm1,49.7,-124.866669,27,CAPE LAZO,0.962356322,-64,0.108333333,0.65,-27,-0.35,-69,-11,9,7,11.18757062,0.233333333,-0.4,0.033333333,0.566666667,-1,-0.966666667,-1.933333333,-1.233333333,-0.266666667,1.433333333,1.033333333,1.3,1.3
1021330,CWHxm1,49.99833,-125.195,5,CAPE MUDGE,-1.264649682,158,0.2375,0.85,10,-0.45,36,1,22,100,-3.511418685,0.483333333,-0.4,0.083333333,0.683333333,-1.3,-0.2,-1.233333333,-0.666666667,0.466666667,1.166666667,0.433333333,0.833333333,1
1021480,CWHxm2,50.33,-125.43,0,CHATHAM POIN,-1.694861301,341,-0.2375,1.15,104,-1.5,97,61,84,100,-12.16387226,-0.15,-1.333333333,-0.216666667,0.85,-2.65,-1.666666667,-2.966666667,-1.5,0.1,1.466666667,0.2,1.066666667,1.6
1021480,CWHxm2,50.33333,-125.433296,0,CHATHAM POIN,-1.694861301,341,-0.2375,1.15,104,-1.5,97,61,84,100,-12.16387226,-0.15,-1.333333333,-0.216666667,0.85,-2.65,-1.666666667,-2.966666667,-1.5,0.1,1.466666667,0.2,1.066666667,1.6
1021737,CWHvm1,50.6,-127.5,62,COAL HARBOUR,1.167811515,-284,0.020833333,-0.45,-88,0.2,-73,-47,-97,-67,9.325352113,0.15,0.3,0.15,-0.316666667,0.65,0.333333333,0.633333333,0.533333333,-0.033333333,-0.133333333,-0.133333333,-0.233333333,-0.5
1021830,CWHxm1,49.71667,-124.900002,23,COMOX A,0.973640167,-67,0.125,0.3,-26,0.15,-39,-9,-17,-2,12.60537634,0.116666667,0.066666667,0,0.216666667,-0.15,-0.133333333,-0.566666667,-0.6,0.1,0.366666667,0.8,0.5,0.333333333
1021838,CWHxm1,49.683333,-125.033333,47,COMOX PCC,3.690505585,-294,0.220833333,0.9,-44,-0.2,-136,-18,-49,-92,18.60508475,0.166666667,-0.266666667,0.083333333,0.7,-1.1,-0.133333333,-0.466666667,-0.033333333,0.633333333,0.466666667,0.033333333,0.3,0.766666667
1021850,CDFmm,49.30583,-124.429199,95,COOMBS,-0.120223398,-13,-0.358333333,-0.4,4,-0.2,-15,3,19,-19,-2.730348259,-0.4,-0.3,-0.3,-0.433333333,0.2,0.733333333,1.1,0.6,0.266666667,-1.533333333,-1.8,-1.3,-1.133333333
1021950,CWHxm1,50.08,-125.029999,0,CORTES ISLAN,0.911848574,-36,0.691666667,1.1,7,0.4,-15,3,0,-24,-0.213513514,1.016666667,0.35,0.616666667,0.883333333,-0.6,-0.366666667,-1.366666667,-0.766666667,0.066666667,2.4,2.066666667,2.1,1.7
1021950,CWHxm1,50.083333,-125.033333,0,CORTES ISLAN,0.911848574,-36,0.691666667,1.1,7,0.4,-15,3,0,-24,-0.213513514,1.016666667,0.35,0.616666667,0.883333333,-0.6,-0.366666667,-1.366666667,-0.766666667,0.066666667,2.4,2.066666667,2.1,1.7
1021960,CWHxm1,50.07139,-124.949402,34,CORTES ISLAN,1.456092324,-111,0.241666667,0.25,14,0.4,-45,13,-23,-56,-1.683959044,0.233333333,0.333333333,0.366666667,0.133333333,0.15,0.566666667,0.433333333,0.566666667,0.366666667,-0.1,0.133333333,0.066666667,0
1021988,CWHxm1,49.76306,-124.999199,85,COURTENAY GR,-0.56410434,67,0.145833333,0.2,-10,0,2,-1,8,58,3.445454545,0.233333333,-0.05,0.05,0.25,-0.2,-0.166666667,-0.233333333,-0.2,-0.033333333,0.633333333,0.233333333,0.4,0.533333333
1021989,CWHxm1,49.68639,-125.032501,21,COURTENAY PU,0.948793015,-91,-0.066666667,-0.3,-19,0.4,-61,-14,-9,-7,9.7,-0.05,0.183333333,-0.216666667,-0.383333333,0.6,0.733333333,1.1,0.7,0.133333333,-0.733333333,-0.833333333,-1.033333333,-0.8
1022250,CWHxm1,49.616667,-125.033333,154,CUMBERLAND,1.075696695,-129,0.15,0.25,-6,0.1,-77,-8,-7,-37,1.928813559,0.266666667,-0.116666667,0.233333333,0.216666667,-0.15,0.8,0.166666667,0.666666667,0.866666667,-0.266666667,-0.4,-0.2,-0.433333333
1022430,CDFmm,49.516667,-124.783333,66,DENMAN ISLAN,-0.794852574,72,0.016666667,0.25,-1,-0.05,-8,9,23,48,0.131937173,-0.016666667,-0.083333333,-0.083333333,0.25,-0.3,0.233333333,-0.1,0,0.333333333,-0.266666667,-0.066666667,-0.166666667,0.266666667
1022436,CDFmm,49.55,-124.800003,63,DENMAN ISLAN,NA,NA,NA,0.3,NA,NA,NA,NA,51,NA,NA,NA,NA,0.1,0.15,NA,NA,NA,0.233333333,0.1,NA,NA,0.066666667,0.3
1022571,CDFmm,48.75585,-123.765297,91,DUNCAN GLENO,-1.195505618,102,-0.2,-0.75,17,0.35,12,8,29,54,-6.20591133,-0.383333333,0.316666667,-0.016666667,-0.716666667,1.1,0.1,0.7,0.466666667,-0.633333333,-0.866666667,-0.166666667,-0.6,-0.7
1022689,CDFmm,49.21667,-123.800003,0,ENTRANCE ISL,83.57647059,-801,0.95,1.6,-136,0.25,-263,-52,-162,-324,228.7357143,1.283333333,0.4,0.8,1.416666667,-1.35,-0.2,-0.933333333,-0.566666667,0.433333333,2.866666667,1.733333333,2.166666667,2.4
102302,CWHxm2,50.186667,-126.394722,401,MT CAIN 12SS,NA,NA,0.541666667,0.45,NA,0.4,NA,NA,NA,NA,NA,0.85,0.383333333,0.516666667,0.516666667,-0.05,1.033333333,0.466666667,0.366666667,0.633333333,0.566666667,0.2,0.666666667,0.3
102303,CWHvm1,50.177222,-126.396942,452,MT CAIN 12NS,NA,NA,-0.058333333,0.2,NA,-0.2,NA,NA,NA,NA,NA,-0.166666667,-0.116666667,0.1,-0.05,-0.4,-0.833333333,-0.533333333,-0.533333333,-0.733333333,0.5,0.2,0.633333333,0.533333333
1023042,CDFmm,49.15389,-123.733597,49,GABRIOLA ISL,1.254041488,-87,-0.570833333,-0.1,-13,-0.8,-56,3,-4,-30,2.542857143,-0.666666667,-0.833333333,-0.616666667,-0.266666667,-0.7,0.066666667,-0.233333333,-0.233333333,0.066666667,-1.4,-1.533333333,-1,-0.6
102306,CWHvm1,50.192778,-126.388885,685,MT CAIN 20S,NA,NA,0.558333333,-0.15,NA,0.7,NA,NA,NA,NA,NA,0.483333333,0.683333333,0.466666667,0.5,0.85,0.433333333,0.9,0.366666667,0.066666667,0.633333333,0.566666667,0.566666667,0.833333333
102308,CWHvm2,50.202222,-126.368614,875,MT CAIN 30S,NA,NA,-0.366666667,0.1,NA,-1.05,NA,NA,NA,NA,NA,-0.55,-0.833333333,-0.3,0.116666667,-1.15,0.133333333,-0.333333333,-0.366666667,0.166666667,-1.133333333,-1.433333333,-0.333333333,0.166666667
102310,MHmm1,50.227778,-126.362778,1198,MT CAIN 40S,NA,NA,NA,NA,NA,-0.1,NA,NA,NA,NA,NA,0.266666667,-0.383333333,-0.133333333,NA,NA,-0.1,-0.933333333,-0.833333333,NA,0.733333333,0.166666667,0.566666667,NA
102325,CWHxm2,49.856944,-125.807503,264,CREST VB,NA,NA,NA,NA,NA,-0.95,NA,NA,NA,NA,NA,-0.85,-0.983333333,NA,NA,NA,-0.6,-0.8,NA,NA,-1.1,-1.166666667,NA,NA
102326,CWHvm1,49.845278,-125.887222,477,CREST 1500,NA,NA,NA,NA,NA,0.95,NA,NA,NA,NA,NA,NA,0.7,NA,NA,NA,NA,0.633333333,NA,NA,NA,0.766666667,NA,NA
102327,CWHmm2,49.85,-125.878609,794,CREST 2500,NA,NA,NA,NA,NA,0.95,NA,NA,NA,NA,NA,NA,0.55,NA,NA,NA,NA,0.166666667,NA,NA,NA,1.033333333,NA,NA
102328,MHmm1,49.855278,-125.874443,1163,CREST 3500,NA,NA,NA,NA,NA,0.45,NA,NA,NA,NA,NA,NA,0.566666667,NA,NA,NA,NA,0.133333333,NA,NA,NA,1,NA,NA
102329,MHmm1,49.857222,-125.873611,1303,CREST 4100,NA,NA,NA,NA,NA,0.25,NA,NA,NA,NA,NA,NA,0.366666667,NA,NA,NA,NA,0.4,NA,NA,NA,0.433333333,NA,NA
102330,MHmm1,49.860833,-125.87278,1443,CREST 4600,NA,NA,NA,NA,NA,0.35,NA,NA,NA,NA,NA,NA,0.3,NA,NA,NA,NA,-0.3,NA,NA,NA,1,NA,NA
1023462,CWHxm1,50.09917,-125.203102,25,HERIOT BAY S,0.129410446,3,0.220833333,0.9,-25,-0.1,6,-21,-9,27,4.688811189,0.333333333,-0.05,0.183333333,0.616666667,-1,-0.3,-0.6,-0.366666667,0.3,0.966666667,0.5,0.833333333,0.933333333
102408,CWHxm1,49.0925,-124.265831,244,DASH CREEK,NA,NA,-0.2875,-0.9,NA,0.1,NA,NA,NA,NA,NA,-0.383333333,0.133333333,-0.3,-0.6,1,0.333333333,1.266666667,0.466666667,-0.3,-1.1,-1,-0.966666667,-1
102409,CWHxm1,49.714722,-125.084442,85,FORBIDDEN,NA,NA,-1.095833333,-0.95,NA,-1.05,NA,NA,NA,NA,NA,-0.916666667,-1.233333333,-1.066666667,-0.966666667,-0.1,-0.166666667,-0.5,-0.833333333,-0.866666667,-1.666666667,-2.066666667,-1.3,-1.166666667
102418,CWHxm2,50.031111,-126.37278,251,VERNON CAMP,NA,NA,NA,NA,NA,-0.15,NA,NA,NA,NA,NA,NA,-0.183333333,NA,NA,NA,NA,0.3,NA,NA,NA,-0.766666667,NA,NA
102419,CWHxm2,50.186389,-126.604164,210,WOSS,NA,NA,NA,NA,NA,0.4,NA,NA,NA,NA,NA,NA,0.283333333,NA,NA,NA,NA,0.333333333,NA,NA,NA,0.233333333,NA,NA
102424,CWHxm2,48.859167,-123.907776,623,CHIPMAN CK,NA,NA,NA,NA,-1,1.15,-28,-6,NA,NA,5.257377049,1.083333333,1.25,1.016666667,NA,NA,1.133333333,1.366666667,1.133333333,NA,1.033333333,1.133333333,0.9,NA
102425,MHmm1,49.053333,-124.343613,1350,GREEN MTN,NA,NA,1.045833333,0.95,NA,1.15,NA,NA,NA,NA,NA,0.9,1.15,0.666666667,1.366666667,0.2,0.8,0.8,0.266666667,1,1,1.4,1.166666667,1.833333333
1024638,CDFmm,49.35278,-124.512199,25,LITTLE QUALI,0.376225947,-66,-0.708333333,-0.15,-7,-0.95,-27,-1,-10,-28,-1.667032967,-0.633333333,-1.1,-0.75,-0.35,-0.8,0.133333333,-0.366666667,-0.2,0.233333333,-1.5,-1.833333333,-1.3,-0.933333333
1024642,CDFmm,49.366667,-124.5,0,LITTLE QUALI,NA,NA,NA,NA,NA,NA,NA,NA,6,NA,NA,NA,NA,NA,NA,NA,NA,NA,NA,NA,NA,NA,-0.933333333,NA
1025234,MHmm1,49.75,-125.283333,1225,MT WASHINGTO,NA,NA,NA,0.3,NA,NA,NA,NA,NA,-551,NA,NA,NA,NA,0.283333333,NA,NA,NA,NA,0.066666667,NA,NA,NA,0.5
1025237,CMAunp,49.75,-125.2911,1414,MT WASHINGTO,NA,NA,NA,NA,NA,NA,NA,NA,NA,NA,NA,NA,NA,NA,NA,NA,NA,NA,NA,NA,NA,NA,NA,NA
1025240,CWHxm1,49.47083,-124.794197,2,MUD BAY,-3.877843719,401,-0.316666667,0,20,-0.6,113,13,64,210,-12.04615385,-0.283333333,-0.516666667,-0.316666667,-0.05,-0.6,-0.333333333,-0.7,-0.366666667,0.066666667,-0.333333333,-0.333333333,-0.266666667,-0.266666667
1025254,CWHmm1,49.57556,-125.605003,353,MYRA CREEK,-0.055669711,71,0.3125,0,-39,1,-36,-24,24,107,8.399406528,0.433333333,0.566666667,0,0.05,1,0.466666667,0.833333333,0.033333333,0.1,0.3,0.4,0.066666667,-0.1
1025340,CDFmm,49.183333,-123.966667,83,NANAIMO,-0.6836966,80,0.65,0.5,21,0.95,15,19,15,31,-4.828301887,0.716666667,0.783333333,0.716666667,0.583333333,0.45,1.133333333,0.733333333,0.933333333,1,0.3,0.833333333,0.5,0.266666667
1025370,CDFmm,49.05222,-123.8703,29,NANAIMO A,-2.083982684,116,-0.2,-0.45,8,0.15,18,7,29,62,-3.525531915,-0.116666667,0,-0.233333333,-0.35,0.5,0.933333333,0.7,0.433333333,0.566666667,-1.166666667,-0.6,-0.8,-1.166666667
1025371,CWHxm1,49.15,-123.966667,93,NANAIMO WATE,NA,NA,NA,-0.1,NA,NA,2,28,NA,54,NA,0.066666667,NA,NA,-0.266666667,NA,0.066666667,NA,NA,0,-0.033333333,NA,NA,-0.533333333
10253P0,CDFmm,49.166667,-123.933334,8,NANAIMO CHUB,1.850886525,-76,0.245833333,0,-16,0.8,-30,7,-23,-30,13.22093023,0.183333333,0.566666667,0.3,0.033333333,0.7,-0.066666667,-0.066666667,-0.166666667,-0.1,0.533333333,1.1,0.666666667,0.066666667
1025915,CWHxm1,49.883333,-125.133331,5,OYSTER RIVER,-0.298796631,10,-0.208333333,0.05,-21,-0.35,-23,-9,12,30,4.504255319,-0.216666667,-0.333333333,-0.316666667,-0.066666667,-0.4,-0.266666667,-0.8,-0.533333333,-0.033333333,-0.066666667,0.033333333,-0.1,-0.1
1025970,CDFmm,49.3,-124.300003,77,PARKSVILLE,1.123640167,-68,-0.275,-0.4,6,-0.15,-42,5,5,-36,-4.167357513,-0.166666667,-0.483333333,-0.216666667,-0.233333333,0.25,0.4,0.466666667,0.466666667,0.233333333,-0.633333333,-1.333333333,-0.9,-0.7
1025977,CDFmm,49.333333,-124.300003,0,PARKSVILLE S,2.933067275,-121,0.1,0.65,-10,0,-34,-4,-14,-70,5.504545455,0.1,0.066666667,0.016666667,0.416666667,-0.65,-0.266666667,-0.666666667,-0.4,0.466666667,0.466666667,0.7,0.333333333,0.366666667
1025C70,CDFmm,49.216667,-123.949997,58,NANAIMO DEPA,2.450305645,-85,0.533333333,0.75,-20,0.65,-45,-1,-10,-28,14.64117647,0.683333333,0.516666667,0.45,0.683333333,-0.1,0.133333333,-0.3,-0.2,0.433333333,1.233333333,1.433333333,1.1,0.933333333
1026170,CWHvh1,50.97583,-127.728104,22,PINE ISLAND,0.696874018,-164,0.179166667,0.85,-40,-1,-41,-7,-81,-35,0.272043011,0.1,-0.7,0.483333333,0.733333333,-1.85,-0.766666667,-1.3,-0.5,0.033333333,0.966666667,-0.1,1.466666667,1.533333333
1026270,CWHvm1,50.68028,-127.366096,15,PORT HARDY A,0.149956934,-82,-0.520833333,-0.2,-10,-0.95,-17,11,-36,-38,-1.555172414,-0.566666667,-0.8,-0.533333333,-0.183333333,-0.75,-0.8,-1.366666667,-0.666666667,-0.033333333,-0.333333333,-0.233333333,-0.3,-0.333333333
1026323,CWHvm1,50.583333,-127.083336,64,PORT MCNEILL,NA,NA,NA,-0.1,NA,NA,-59,NA,NA,-87,NA,0.15,NA,0.266666667,0.016666667,NA,0.233333333,NA,0,0.366666667,0.066666667,-0.166666667,0.433333333,-0.233333333
1026562,CDFmm,49.33722,-124.393898,55,QUALICUM AIR,NA,NA,NA,-0.1,NA,NA,-118,NA,NA,NA,NA,-0.116666667,NA,NA,-0.1,NA,0.4,NA,NA,0.3,-0.633333333,-0.1,NA,-0.5
1026565,CDFmm,49.39361,-124.617203,6,QUALICUM R F,-1.305920709,79,-0.354166667,0.3,18,-0.9,17,10,22,30,-12.58536585,-0.433333333,-0.866666667,-0.366666667,0.15,-1.2,-0.6,-1.366666667,-0.866666667,0.266666667,-0.166666667,-0.366666667,0.133333333,0.133333333
1026639,CWHxm1,50.01611,-125.303902,27,QUINSAM RIVE,-0.899185974,106,-0.075,0.05,-11,-0.2,16,-8,20,78,1.721708185,-0.016666667,-0.233333333,-0.133333333,-0.016666667,-0.25,0.266666667,0.033333333,0.033333333,0.333333333,-0.3,-0.5,-0.4,-0.266666667
1027114,CWHxm2,50.316667,-125.933334,37,SAYWARD 2,-0.913548505,109,-0.379166667,-0.1,0,-0.7,-7,-1,34,83,-1.910306407,-0.3,-0.7,-0.35,-0.366666667,-0.6,0.3,-0.333333333,0.733333333,0.266666667,-0.8,-0.966666667,-1.333333333,-1.1
1027775,CWHxm2,50,-125.583336,180,STRATHCONA D,NA,NA,0.083333333,-0.2,33,0.35,-29,33,NA,NA,-5.574757282,0.65,0.1,-0.016666667,-0.2,0.55,0.566666667,0,0,0.2,0.633333333,0.2,-0.133333333,-0.7
10277GN,CWHxm2,49.883333,-125.650002,225,STRATHCONA P,NA,NA,NA,NA,NA,NA,NA,NA,NA,NA,NA,NA,NA,NA,NA,NA,NA,NA,NA,NA,NA,NA,NA,NA
1028L3M,CWHxm2,49.9,-125.633331,471,UPPER CAMPBE,-0.228431373,72,0.283333333,-0.25,18,1.2,11,12,32,18,0.485858586,0.816666667,0.683333333,0.016666667,-0.183333333,1.45,0.466666667,0.933333333,-0.033333333,-0.766666667,1.066666667,0.433333333,0.066666667,0.3
102BFHH,CDFmm,49.20891,-123.808899,4,ENTRANCE ISL,2.258711303,-78,0.504166667,1.3,-9,0.05,-50,0,-2,-26,4.966298343,0.833333333,-0.033333333,0.333333333,0.983333333,-1.25,-0.866666667,-1.966666667,-1.433333333,-0.1,2.433333333,1.9,2,2.066666667
102JR88,CWHxm1,49.71696,-124.976898,94,COURTENAY ME,-1.000796359,113,0.083333333,0.15,1,0.35,24,1,16,73,1.054954955,-0.133333333,0.233333333,0.316666667,0.016666667,0.2,0.133333333,0.633333333,0.766666667,0.066666667,-0.4,-0.266666667,-0.133333333,-0.033333333
102PG75,CDFmm,49.083333,-123.800003,37,STUART CHANN,NA,11,NA,0,2,NA,-19,7,8,14,NA,0.05,NA,0.116666667,-0.033333333,NA,0.566666667,NA,0.866666667,0.233333333,-0.466666667,-0.366666667,-0.533333333,-0.2
1030180,CWHxm2,49.366667,-124.933334,103,ALBERNI BEAV,0.261890743,-98,-0.316666667,-0.7,-28,-0.2,-113,-11,6,21,5.881818182,-0.316666667,-0.45,-0.066666667,-0.333333333,0.5,0.1,0.3,0.6,-0.2,-0.833333333,-1.1,-0.633333333,-0.566666667
1030210,CWHxm1,49.25,-124.816666,5,ALBERNI LUPS,0.653619529,-127,0.004166667,0.3,-55,0,-64,-25,-24,-13,14.41092437,0.05,-0.133333333,-0.016666667,0.216666667,-0.3,0.133333333,-0.3,-0.033333333,0.266666667,0.066666667,0.033333333,0,0.066666667
1030220,CWHxm1,49.283333,-124.883331,62,ALBERNI MCCO,-0.136451512,8,-0.208333333,-0.4,-11,0.1,-35,3,-27,67,2.814285714,-0.183333333,-0.033333333,-0.183333333,-0.233333333,0.5,0.166666667,0.766666667,0.433333333,-0.033333333,-0.633333333,-0.833333333,-0.8,-0.533333333
1030230,CWHxm1,49.33722,-124.982201,79,ALBERNI ROBE,0.162774877,-45,-0.183333333,-0.55,-2,0.2,-80,7,-10,38,1.256164384,-0.116666667,0.116666667,-0.033333333,-0.5,0.75,0.2,0.733333333,0.333333333,-0.533333333,-0.433333333,-0.4,-0.5,-0.466666667
1030425,CWHvh1,48.916667,-125.533333,0,AMPHITRITE P,0.328505898,-88,0.325,0.8,-20,-0.1,-50,-8,-48,18,0.684745763,0.366666667,-0.183333333,0.4,0.716666667,-0.9,0.1,-0.4,-0.033333333,0.333333333,0.533333333,0.033333333,0.733333333,1
1030552,CWHxm2,49.366667,-125.150002,85,ASH RIVER GE,0.090394295,-65,-0.2125,-0.3,-23,0.2,-44,-19,-37,35,4.54244373,0.016666667,0.05,-0.633333333,-0.483333333,0.4,-0.666666667,-0.566666667,-1.266666667,-0.866666667,0.7,0.666666667,0,-0.1
1030605,CWHvh1,48.833333,-125.116669,0,BAMFIELD EAS,0.032107843,-26,-0.0875,0.4,-66,-0.3,-13,-46,-18,51,3.612582781,-0.15,-0.383333333,-0.083333333,0.366666667,-0.7,0.066666667,-0.166666667,0,0.666666667,-0.466666667,-0.6,-0.166666667,0.066666667
1031110,CWHvh1,50.916667,-127.949997,51,BULL HARBOUR,0.752076773,-214,0.066666667,0.05,-42,0,-74,-1,-81,-57,2.295061728,0.083333333,-0.083333333,0.216666667,0.15,-0.05,0.133333333,-0.1,0.233333333,0.2,0.133333333,0.033333333,0.1,0.1
1031316,CWHvh1,48.78611,-125.216103,26,CAPE BEALE L,0.293326066,-99,0.020833333,0.95,-48,-1.1,-35,-29,-46,11,0.611677282,0.05,-0.866666667,-0.033333333,0.733333333,-2.05,-0.566666667,-1.466666667,-0.766666667,0.533333333,0.766666667,-0.266666667,0.8,0.933333333
1031353,CWHvh1,50.78222,-128.4272,64,CAPE SCOTT,0.175663772,-64,0.108333333,0.5,-22,0,-25,-4,-29,-6,0.751409619,0.183333333,-0.2,0,0.35,-0.5,0.066666667,-0.433333333,-0.4,0.266666667,0.3,0.033333333,0.3,0.333333333
1031413,CWHvh1,48.9,-125,3,CARNATION CR,0.181313308,-71,0.1875,0.4,-41,-0.2,-51,-20,-31,30,2.345647558,0.05,-0.1,0.25,0.35,-0.5,0.3,0.366666667,0.5,0.6,-0.2,-0.466666667,0,0.2
1031650,CWHvh1,49.15,-125.900002,38,CLAYOQUOT,NA,NA,1.016666667,1.1,NA,1.15,-148,NA,-83,-127,NA,1.1,0.95,0.966666667,1.05,0.05,1.166666667,1.333333333,1,1,0.933333333,0.566666667,0.933333333,1.2
1032730,CWHvh1,49.3835,-126.550797,0,ESTEVAN POIN,-0.179100529,37,-0.204166667,0.1,-5,-0.4,9,-11,3,37,-0.421890547,-0.216666667,-0.316666667,-0.333333333,0.05,-0.5,-0.7,-0.7,-0.8,-0.533333333,0.366666667,0.066666667,0.233333333,0.633333333
1032730,CWHvh1,49.38,-126.550003,0,ESTEVAN POIN,-0.179100529,37,-0.204166667,0.1,-5,-0.4,9,-11,3,37,-0.421890547,-0.216666667,-0.316666667,-0.333333333,0.05,-0.5,-0.7,-0.7,-0.8,-0.533333333,0.366666667,0.066666667,0.233333333,0.633333333
1032731,CWHvh1,49.38319,-126.544701,8,ESTEVAN POIN,0.489805269,-205,0.058333333,0.3,-74,-0.45,-75,-45,-59,-26,2.634456929,0.1,-0.3,-0.033333333,0.266666667,-0.65,-0.266666667,-0.733333333,-0.4,0.133333333,0.466666667,0.133333333,0.233333333,0.5
1033230,CWHxm2,49.666667,-126.166664,0,GOLD RIVER,NA,NA,NA,NA,NA,NA,NA,NA,NA,NA,NA,NA,NA,NA,NA,NA,NA,NA,NA,NA,NA,NA,NA,NA
1033232,CWHxm2,49.78306,-126.048302,138,GOLD RIVER T,-0.214973262,92,0.1125,-0.05,46,0.35,1,32,35,25,-3.889954338,0.216666667,0.266666667,0.216666667,-0.15,0.4,0.7,0.666666667,0.566666667,0.266666667,-0.266666667,-0.233333333,-0.233333333,-0.566666667
1033456,CWHvm1,49.13333,-125.141899,8,HENDERSON LA,-2.308297007,3035,-0.3875,0.15,437,-1,1055,187,682,1110,-11.45957837,-0.216666667,-1,-0.483333333,0.05,-1.15,-0.266666667,-1.766666667,-0.9,0.066666667,-0.166666667,-0.233333333,-0.166666667,0.033333333
1033480,CWHvm1,50.65,-128,0,HOLBERG,-0.577382777,-237,-3.2375,-2.65,36,-3.5,-89,42,-60,-130,-5.34148802,-2.75,-3.8,-3.716666667,-2.683333333,-0.85,-3.866666667,-5.033333333,-4.866666667,-3.066666667,-1.733333333,-2.566666667,-2.466666667,-2.3
1033483,CWHvm1,50.65,-127.98333,131,HOLBERG FIRE,-0.646544715,569,0.279166667,0.25,96,0.3,163,50,145,212,-1.93033839,0.416666667,0.116666667,0.3,0.283333333,0.05,0.266666667,0.1,0.233333333,0.166666667,0.466666667,0.133333333,0.366666667,0.3
1033485,CWHvm1,50.65,-128,0,HOLBERG PUMP,NA,NA,NA,NA,139,NA,NA,-5,NA,NA,NA,-0.7,NA,NA,NA,NA,-1.366666667,NA,NA,NA,-0.133333333,NA,NA,NA
1034170,CWHvm1,49,-125,0,KILDONAN,NA,90,NA,NA,11,NA,1,0,16,73,NA,NA,NA,NA,NA,NA,NA,NA,NA,NA,NA,NA,NA,NA
1034175,CWHvm1,48.983333,-125.01667,0,KILDONAN FAT,NA,NA,NA,NA,NA,0.05,-2,16,NA,NA,NA,0.516666667,0.116666667,NA,NA,NA,0.266666667,-0.433333333,NA,NA,0.766666667,0.566666667,NA,NA
103418,CWHvm1,49.164167,-125.038612,106,NAHMINT LK,NA,NA,NA,NA,86,-0.15,104,19,NA,NA,-3.65201669,-0.233333333,-0.3,NA,NA,NA,-1.833333333,-1.5,NA,NA,1.266666667,0.9,NA,NA
103419,CWHvm1,49.809444,-126.358612,43,CONUMA RIVER,NA,NA,NA,NA,-41,0.2,NA,-23,72,455,1.925806452,0.233333333,0.033333333,-0.25,NA,NA,-0.066666667,-0.266666667,-0.6,NA,0.533333333,0.233333333,0.2,NA
103420,CWHvm1,50.477222,-127.686943,111,QUATSINO SND,NA,-307,NA,NA,-96,1,-134,-48,-77,-48,8.445454545,0.2,0.2,-0.033333333,NA,NA,0,0.233333333,-0.233333333,NA,0.4,0.166666667,0.066666667,NA
103421,CWHvm1,50.591944,-127.386391,35,RUPERT MAIN,NA,NA,-0.358333333,-1.15,-107,-0.05,NA,-31,-108,-179,12.1460815,-0.333333333,0.033333333,-0.266666667,-0.966666667,1.2,0.033333333,0.466666667,0,-1.066666667,-0.7,-0.4,-0.533333333,-0.966666667
103425,CWHvm1,50.444444,-127.361115,177,ALICE LK FP,NA,NA,NA,NA,NA,NA,-92,NA,NA,NA,NA,-0.116666667,NA,NA,NA,NA,0,NA,NA,NA,-0.133333333,NA,NA,NA
1035612,CWHvm1,48.85944,-124.655296,19,NITINAT RIVE,-1.047890526,569,-0.179166667,-0.15,108,0.05,166,43,145,215,-7.163702359,-0.1,-0.1,-0.216666667,0,0.3,0.266666667,0.166666667,-0.033333333,0.3,-0.566666667,-0.466666667,-0.5,-0.4
1035614,CWHvh1,49.6,-126.616699,42,NOOTKA LIGHT,0.143700988,7,0.408333333,0.25,-23,0.9,11,-18,-17,31,2.270588235,0.483333333,0.666666667,0.316666667,0.166666667,0.65,-0.533333333,0.3,-0.433333333,-0.833333333,1.4,1.033333333,1.066666667,1.166666667
1035614,CWHvh1,49.6,-126.610001,0,NOOTKA LIGHT,0.143700988,7,0.408333333,0.25,-23,0.9,11,-18,-17,31,2.270588235,0.483333333,0.666666667,0.316666667,0.166666667,0.65,-0.533333333,0.3,-0.433333333,-0.833333333,1.4,1.033333333,1.066666667,1.166666667
1035940,CWHvh1,48.72278,-125.097198,43,PACHENA POIN,-0.702707443,293,-0.045833333,0.7,69,-0.6,83,36,71,103,-4.872759857,-0.15,-0.5,0.05,0.616666667,-1.3,0,-0.133333333,0.3,0.566666667,-0.4,-0.966666667,-0.2,0.566666667
1035940,CWHvh1,48.71,-125.099998,0,PACHENA POIN,-0.702707443,293,-0.045833333,0.7,69,-0.6,83,36,71,103,-4.872759857,-0.15,-0.5,0.05,0.616666667,-1.3,0,-0.133333333,0.3,0.566666667,-0.4,-0.966666667,-0.2,0.566666667
1036205,CWHxm2,49.233333,-124.800003,77,PORT ALBERNI,0.483754454,-85,0.229166667,0.15,-49,0.5,-60,-24,0,-1,13.8,0.283333333,0.233333333,0.35,0.15,0.35,0.033333333,0.166666667,0.4,-0.033333333,0.533333333,0.3,0.3,0.233333333
1036206,CWHxm1,49.25,-124.833298,8,PORT ALBERNI,1.316865294,-288,-0.316666667,-0.05,-45,-0.2,-137,-25,-53,-72,10.29236948,-0.133333333,-0.55,-0.3,-0.083333333,-0.15,0.233333333,0,-0.1,-0.033333333,-0.6,-1,-0.6,-0.033333333
1036206,CWHxm1,49.25,-124.833336,8,PORT ALBERNI,1.316865294,-288,-0.316666667,-0.05,-45,-0.2,-137,-25,-53,-72,10.29236948,-0.133333333,-0.55,-0.3,-0.083333333,-0.15,0.233333333,0,-0.1,-0.033333333,-0.6,-1,-0.6,-0.033333333
1036208,CWHxm2,49.20167,-124.751701,162,PORT ALBERNI,1.203512073,-295,0.166666667,0.35,-25,-0.2,-102,-18,-49,-127,3.703257329,0.266666667,-0.333333333,0.166666667,0.566666667,-0.55,0.866666667,0.1,0.433333333,0.733333333,-0.233333333,-0.766666667,0,0.4
1036210,CWHxm2,49.25,-124.800003,27,PORT ALBERNI,NA,NA,0.633333333,0.55,-32,0.65,-38,-6,NA,46,10.08461538,0.666666667,0.583333333,0.633333333,0.55,0.1,0.5,0.1,0.566666667,0.566666667,0.733333333,0.966666667,0.7,0.533333333
1036218,CWHxm1,49.3,-124.933334,79,PORT ALBERNI,0.523405299,-122,-0.0875,-0.45,-15,0.2,-103,-7,-13,2,4.049820789,0.016666667,0,0.083333333,-0.35,0.65,0.433333333,0.8,0.6,-0.333333333,-0.5,-0.8,-0.433333333,-0.266666667
1036240,CWHvm1,50.38639,-127.4533,29,PORT ALICE,-0.465232975,321,0.433333333,0.25,-7,0.45,82,15,38,187,1.386046512,0.55,0.5,0.3,0.283333333,0.2,0.466666667,0.666666667,0.3,0.366666667,0.633333333,0.333333333,0.3,0.2
1036570,CWHvm1,50.53333,-127.653603,10,QUATSINO,0.339049145,-119,0.016666667,-0.2,-80,0.1,-33,-32,-70,16,6.054460094,0.133333333,0.016666667,0.166666667,-0.15,0.3,0.033333333,0.166666667,0.233333333,-0.266666667,0.233333333,-0.033333333,0,-0.133333333
1036572,CWHvh1,50.44112,-128.032501,18,QUATSINO LIG,1.553588058,-491,0.545833333,0.8,-130,0.4,-168,-72,-106,-145,6.156957328,0.916666667,0.133333333,0.383333333,0.85,-0.5,0.8,-0.266666667,-0.066666667,0.9,1.033333333,0.433333333,0.833333333,0.9
1036572,CWHvh1,50.4333,-128.033295,0,QUATSINO LIG,1.553588058,-491,0.545833333,0.8,-130,0.4,-168,-72,-106,-145,6.156957328,0.916666667,0.133333333,0.383333333,0.85,-0.5,0.8,-0.266666667,-0.066666667,0.9,1.033333333,0.433333333,0.833333333,0.9
1036B06,CWHxm1,49.31669,-124.926399,90,PORT ALBERNI,2.052408478,-417,-0.233333333,-0.4,-85,0.15,-167,-27,-123,-100,25.92115385,-0.166666667,-0.083333333,-0.2,-0.283333333,0.55,0.066666667,0.166666667,-0.1,-0.433333333,-0.4,-0.333333333,-0.2,-0.233333333
1037090,CWHvh1,50.82111,-128.908096,45,SARTINE ISLA,NA,NA,10007.55833,10004.25,NA,10012.2,NA,NA,NA,NA,NA,10008.71667,10011,10006.06667,10004.45,10006.95,10010.2,10012.36667,10007.66667,10005.8,10007.23333,10009.63333,10004.46667,10003.1
1037553,CWHvh1,50.11169,-127.940498,72,SOLANDER ISL,NA,NA,-0.75,0.9,NA,-2.55,NA,NA,NA,NA,NA,0.25,-2.583333333,-1.316666667,0.95,-3.45,-1.466666667,-4.833333333,-3.033333333,-0.233333333,1.866666667,-0.433333333,0.3,2.033333333
1037650,CWHvh1,50,-127.416664,0,SPRING ISLAN,0.023104003,16,0.129166667,0.4,2,-0.05,1,1,-17,31,-0.056824513,0.416666667,-0.116666667,-0.216666667,0.433333333,-0.45,-0.5,-0.766666667,-1.166666667,-0.3,1.433333333,0.433333333,0.733333333,1.266666667
1037650,CWHvh1,50,-127.410004,0,SPRING ISLAN,0.023104003,16,0.129166667,0.4,2,-0.05,1,1,-17,31,-0.056824513,0.416666667,-0.116666667,-0.216666667,0.433333333,-0.45,-0.5,-0.766666667,-1.166666667,-0.3,1.433333333,0.433333333,0.733333333,1.266666667
1037899,CWHvm1,49.93333,-126.650002,10,TAHSIS VILLA,NA,NA,NA,NA,-72,NA,-76,-34,-46,NA,NA,NA,NA,NA,NA,NA,0.3,0.466666667,-0.066666667,NA,NA,NA,NA,NA
1038205,CWHvh1,49.08222,-125.772499,28,TOFINO A,-0.10272026,22,-0.133333333,0.35,-70,-0.2,18,-47,-22,73,2.38330494,-0.1,-0.2,-0.316666667,0.183333333,-0.45,0.066666667,0.033333333,-0.366666667,0.366666667,-0.266666667,-0.333333333,-0.166666667,0
1038207,CWHvh1,49.15,-125.900002,38,TOFINO VILLA,-0.085796105,87,0.191666667,0.6,-74,0.3,38,-54,15,88,3.821978022,0.316666667,0.033333333,0.1,0.316666667,-0.3,0.133333333,0.166666667,-0.066666667,0.4,0.4,-0.1,0.266666667,0.333333333
1038332,CWHvh1,48.95,-125.533333,34,UCLUELET KEN,-0.205960854,127,0.1375,0.55,4,-0.1,54,-14,-7,93,-0.282278481,0.016666667,0.05,-0.066666667,0.55,-0.65,0.633333333,0.8,0.233333333,0.933333333,-0.6,-0.7,-0.466666667,0.066666667
1038964,CWHvm1,50.516667,-128.03334,61,WINTER HARBO,-0.479293622,343,0.383333333,0.4,94,0.4,48,75,38,182,-1.778486998,0.416666667,0.316666667,0.25,0.45,0,0.233333333,0.266666667,0.1,0.333333333,0.7,0.466666667,0.4,0.466666667
1039040,CWHvm1,50.033333,-126.816666,82,ZEBALLOS IRO,NA,NA,NA,NA,NA,NA,NA,NA,NA,NA,NA,NA,NA,NA,NA,NA,NA,NA,NA,NA,NA,NA,NA,NA
103EFJ0,CWHvh1,48.666667,-124.833336,44,NITINAT LAKE,NA,NA,-0.045833333,0.35,NA,-0.55,NA,NA,NA,NA,NA,0.033333333,-0.6,0.1,0.283333333,-0.9,-0.366666667,-1.066666667,-0.033333333,0.266666667,0.433333333,-0.033333333,0.233333333,0.3
104,CWHvm1,53.5633,-127.943298,80,ZZ KEMANO,NA,NA,NA,NA,-1,0.4,NA,1,NA,NA,1.094014963,0.116666667,0.416666667,NA,NA,NA,-0.133333333,0.433333333,NA,NA,0.366666667,0.3,NA,NA
104025,CWHxm1,49.989167,-124.660553,398,POWELL RIVER,0.11181562,27,0.529166667,0.6,11,0.85,-33,12,6,42,0.721348315,0.55,0.616666667,0.45,0.6,0.25,0.433333333,0.566666667,0.233333333,0.366666667,0.666666667,0.566666667,0.666666667,0.733333333
1040390,CWHms1,50.15,-122.949997,634,ALTA LAKE,-1.463685069,121,-0.620833333,-0.55,-5,-0.3,-1,7,28,88,0.027272727,-0.716666667,-0.416666667,-0.466666667,-0.683333333,0.25,-0.7,-0.133333333,-0.333333333,-0.6,-0.733333333,-0.7,-0.6,-0.766666667
1040R09,CWHdm,49.4,-123.333336,334,BOWEN ISLAND,0.030946698,119,1.566666667,1.5,7,1.7,21,4,45,48,4.016049383,1.35,1.816666667,1.716666667,1.483333333,0.2,0.466666667,1.133333333,1.133333333,0.9,2.233333333,2.4,2.2,2.066666667
1041050,CWHdm,49.583333,-123.216667,61,BRITANNIA BE,-0.049321881,68,0.4625,0.45,-11,0.75,3,2,7,56,2.802764977,0.466666667,0.783333333,0.333333333,0.266666667,0.4,0,0.5,0.066666667,0.266666667,0.933333333,0.966666667,0.7,0.366666667
1041710,CWHdm,49.716667,-123.533333,58,CLOWHOM FALL,0.03410571,30,0.304166667,0.8,-13,0.5,-4,-2,2,35,2.475829384,0.35,0.25,-0.033333333,0.55,-0.3,0.3,0.366666667,0.2,0.4,0.4,0.133333333,-0.166666667,0.7
1042255,CWHds1,49.983333,-123.133331,394,DAISY LAKE D,NA,NA,-0.520833333,-0.35,17,-0.45,5,15,34,NA,-3.856647399,-0.483333333,-0.566666667,-0.55,-0.483333333,-0.1,-0.333333333,-0.5,-0.233333333,-0.133333333,-0.533333333,-0.533333333,-0.766666667,-0.833333333
104312,CWHxm1,49.660278,-123.965553,166,PENDER H FP,NA,NA,0.254166667,-0.3,NA,1.05,-125,-4,NA,NA,NA,0.166666667,0.8,0.333333333,-0.283333333,1.35,0.133333333,1.333333333,0.533333333,-0.7,0.1,0.266666667,0.033333333,0.133333333
1043150,CWHxm1,49.4,-123.51667,115,GIBSONS,0.287497051,-1,0.370833333,0.45,24,0.3,-18,21,16,-20,-3.994059406,0.4,0.433333333,0.4,0.35,-0.05,0.133333333,0.466666667,0.2,0.133333333,0.566666667,0.4,0.6,0.566666667
1043152,CWHxm1,49.38583,-123.541397,48,GIBSONS GOWE,-0.403537618,41,0.066666667,0.2,32,-0.05,-7,24,22,1,-7.787412587,0.166666667,0,0.066666667,0.133333333,-0.25,-0.333333333,-0.633333333,-0.366666667,-0.1,0.666666667,0.633333333,0.5,0.366666667
104317,CWHdm,49.819444,-124.238609,486,LOIS LAKE,NA,44,NA,-0.05,-10,0.2,-15,5,10,44,1.284474886,0.133333333,0.166666667,NA,-0.083333333,0.25,0.1,0.233333333,-0.1,-0.366666667,0.166666667,0.1,NA,0.3
1043722,CWHvm1,49.916667,-123.866669,0,JERVIS INLET,-0.687060356,113,-0.625,-0.75,24,-0.25,5,24,26,58,-2.053435115,-0.533333333,-0.266666667,-0.466666667,-1.033333333,0.5,-0.533333333,-0.2,-0.3,-1.166666667,-0.633333333,-0.333333333,-0.733333333,-0.8
104418,CWHvm2,49.755556,-123.058334,1089,PHO LOW,NA,NA,NA,NA,NA,0.45,NA,NA,NA,NA,NA,NA,0.566666667,0.366666667,NA,NA,NA,-0.266666667,-0.433333333,NA,NA,1.4,1.166666667,NA
1044840,CWHdm,50.16472,-123.853104,12,MALIBU JERVI,-0.111047385,50,0.233333333,0.5,-5,0.6,-2,2,5,45,1.289833641,0.266666667,0.45,0.033333333,0.183333333,0,-0.666666667,-0.4,-0.666666667,-0.366666667,1.1,1.4,0.733333333,0.733333333
1045100,CDFmm,49.4675,-123.912498,13,MERRY ISLAND,0.530107527,9,0.7,1.35,35,0.35,-7,29,5,-18,-11.175,0.733333333,0.45,0.583333333,1.033333333,-1,-0.466666667,-0.833333333,-0.633333333,0.1,2.033333333,1.733333333,1.8,1.966666667
1045100,CDFmm,49.46,-123.910004,0,MERRY ISLAND,0.530107527,9,0.7,1.35,35,0.35,-7,29,5,-18,-11.175,0.733333333,0.45,0.583333333,1.033333333,-1,-0.466666667,-0.833333333,-0.633333333,0.1,2.033333333,1.733333333,1.8,1.966666667
10459NN,CWHxm1,49.48791,-123.298897,0,HOWE SOUND -,7.752273471,-524,0.954166667,1.3,-77,0.5,-174,-18,-105,-228,21.02489451,0.933333333,0.55,0.9,1.233333333,-0.9,0.2,-0.3,0.033333333,0.766666667,1.666666667,1.5,1.666666667,1.7
1046330,CWHdm,49.51,-123.480003,0,PORT MELLON,-5.564275668,1567,-0.041666667,-0.35,257,0.35,505,125,355,582,-21.46942149,-0.033333333,0.283333333,-0.216666667,-0.4,0.7,0,0.566666667,0.066666667,-0.533333333,-0.166666667,0.1,-0.4,-0.366666667
1046330,CWHvm1,49.516667,-123.48333,0,PORT MELLON,-5.564275668,1567,-0.041666667,-0.35,257,0.35,505,125,355,582,-21.46942149,-0.033333333,0.283333333,-0.216666667,-0.4,0.7,0,0.566666667,0.066666667,-0.533333333,-0.166666667,0.1,-0.4,-0.366666667
1046390,CDFmm,49.883333,-124.550003,126,POWELL RIVER,2.928057107,-125,1.058333333,1.45,-15,0.95,-56,-2,-25,-42,7.60438247,1.3,0.916666667,0.816666667,1.2,-0.5,0.6,0.3,0.333333333,0.966666667,2,1.533333333,1.3,1.433333333
1046391,CWHxm1,49.83417,-124.500298,123,POWELL RIVER,0.040398254,-18,-0.220833333,0.2,14,-0.35,-29,16,-1,-5,-4.226279863,-0.216666667,-0.35,-0.316666667,0,-0.55,-0.266666667,-0.433333333,-0.466666667,0,-0.066666667,-0.266666667,-0.266666667,0
1046400,CDFmm,49.8,-124.51667,0,POWELL RIVER,0.813542629,-34,0.291666667,0.3,22,0.05,-38,22,-1,-16,-5.908365019,0.416666667,0.133333333,0.383333333,0.233333333,-0.25,-0.333333333,-0.5,0,0,1.066666667,0.766666667,0.666666667,0.466666667
1046410,CDFmm,49.833333,-124.51667,69,POWELL RIVER,0.528368794,4,0.695833333,0.8,22,0.7,-16,22,6,-8,-2.928975265,0.683333333,0.666666667,0.55,0.683333333,-0.1,0.2,0.033333333,0.1,0.333333333,1.166666667,1.2,1.1,1.033333333
1046795,CWHdm,49.433333,-123.616669,205,ROBERTS CREE,NA,NA,NA,NA,NA,NA,10,NA,NA,NA,NA,0.466666667,NA,0.1,NA,NA,0.7,NA,0.266666667,NA,0.233333333,NA,-0.166666667,NA
1047179,CWHxm1,49.466667,-123.800003,0,SECHELT 5WES,NA,41,NA,NA,31,-1.2,-16,28,14,16,-14.10196078,-0.9,-1.133333333,-0.8,NA,NA,-0.566666667,-0.866666667,-0.533333333,NA,-1.233333333,-1.4,-1.066666667,NA
1047660,CWHdm,49.7,-123.133331,30,SQUAMISH,0.115229215,-43,-0.033333333,-0.5,-20,-0.1,-54,4,-5,13,2.134020619,-0.083333333,-0.083333333,0.066666667,-0.233333333,0.4,0.066666667,-0.2,0.3,-0.133333333,-0.233333333,0.133333333,-0.166666667,-0.333333333
1047670,CWHdm,49.733333,-123.150002,12,SQUAMISH STP,-0.610862429,137,-0.041666667,0.05,4,0,31,11,10,85,-0.414720812,-0.233333333,0,0.066666667,0.1,-0.05,0.433333333,0.4,0.433333333,0.433333333,-0.8,-0.4,-0.4,-0.333333333
1047671,CWHdm,49.7,-123.166664,6,SQUAMISH STP,-0.799394208,174,-0.145833333,0.05,20,-0.3,66,24,13,70,-2.934306569,-0.316666667,-0.216666667,0.033333333,-0.083333333,-0.35,0.333333333,-0.033333333,0.5,0.4,-0.866666667,-0.5,-0.533333333,-0.566666667
1047672,CWHdm,49.9,-123.283333,75,SQUAMISH UPP,-1.01387333,211,-0.4,-1.1,6,0.15,27,18,57,110,-0.413227513,-0.4,0.083333333,-0.1,-1.083333333,1.25,0.033333333,0.7,0.466666667,-1.133333333,-0.833333333,-0.433333333,-0.566666667,-1.133333333
10476F0,CWHdm,49.78333,-123.161102,60,SQUAMISH,-1.344099807,339,-0.020833333,-0.25,-8,0.25,105,-2,68,169,1.594652406,-0.25,0.133333333,0.083333333,-0.15,0.4,0.133333333,0.466666667,0.5,-0.166666667,-0.533333333,-0.1,-0.333333333,-0.233333333
1047F6B,CWHdm,49.733333,-123.150002,12,SQUAMISH GAR,NA,NA,NA,-0.2,NA,NA,NA,NA,NA,NA,NA,NA,NA,NA,-0.033333333,NA,NA,NA,NA,0.466666667,NA,NA,NA,-0.633333333
1048140,CDFmm,49.7,-124.51667,93,TEXADA ISLAN,3.200704722,-162,0.066666667,0.55,-7,-0.1,-56,5,-28,-82,2.118518519,0.166666667,-0.216666667,-0.016666667,0.433333333,-0.65,0,-0.533333333,-0.333333333,0.466666667,0.333333333,0.2,0.4,0.4
1048898,CWHms1,50.12889,-122.954803,659,WHISTLER,0.498860625,-50,0.004166667,-0.15,4,0.55,-19,12,-12,-31,1.022710623,-0.15,0.4,0.233333333,-0.266666667,0.7,0,0.9,0.566666667,-0.4,-0.4,-0.2,-0.1,-0.133333333
1048974,CWHvm2,49.583333,-123.883331,744,WOODFIBRE,NA,-49,NA,NA,-25,NA,-29,-12,-15,7,NA,NA,NA,NA,NA,NA,NA,NA,NA,NA,NA,NA,NA,NA
104LC3N,CWHxm1,49.733333,-124.183334,0,HARDY ISLAND,NA,NA,NA,NA,NA,NA,NA,42,NA,NA,NA,NA,NA,NA,NA,NA,NA,NA,NA,NA,NA,NA,NA,NA
105,CWHws1,54.915,-128.858307,220,ROSSWOOD,NA,NA,NA,NA,10,-1.2,NA,6,NA,NA,-6.714492754,NA,-1.283333333,NA,NA,NA,NA,-0.133333333,NA,NA,NA,-2.433333333,NA,NA
105003,CWHwh1,53.7475,-132.116669,26,BOULTON LK,NA,NA,NA,NA,NA,NA,NA,NA,NA,NA,NA,NA,NA,NA,NA,NA,NA,NA,NA,NA,NA,NA,NA,NA
105007,CWHwh1,53.349444,-131.941666,14,DEAD TREE PT,NA,NA,NA,NA,NA,NA,NA,NA,NA,NA,NA,NA,NA,NA,NA,NA,NA,NA,NA,NA,NA,NA,NA,NA
105008,CWHwh1,53.125,-132.241394,157,DEENA CREEK,-0.80087116,586,0.408333333,0.25,149,0.2,192,70,53,270,-4.402883355,0.033333333,0.083333333,0.333333333,0.983333333,-0.05,0.533333333,0.633333333,0.9,1.233333333,-0.466666667,-0.466666667,-0.233333333,0.833333333
105009,CWHwh1,53.907778,-132.666672,27,EDEN LAKE AS,NA,NA,NA,NA,28,0.2,NA,9,NA,NA,-1.338276553,0.266666667,0.083333333,NA,NA,NA,-0.033333333,-0.166666667,NA,NA,0.466666667,0.433333333,NA,NA
105012,CWHvh3,53.4,-132.513885,17,GOSPEL POINT,-0.051330901,52,0.229166667,0.25,12,-0.1,20,13,-49,68,-0.831357553,0.2,0.033333333,-0.1,0.683333333,-0.35,0,-0.133333333,-0.033333333,0.333333333,0.4,0.3,-0.066666667,1.033333333
105015,CWHwh1,53.574167,-132.378616,171,JUSKATLA E 1,NA,NA,0.179166667,0.15,NA,-0.15,NA,29,NA,126,NA,-0.05,0.05,0.116666667,0.6,-0.3,0.133333333,0.133333333,0.433333333,0.6,-0.233333333,-0.033333333,-0.3,0.7
105016,CWHwh1,53.248889,-132.171951,101,KAGEN BAY,NA,NA,NA,NA,NA,NA,NA,NA,NA,NA,NA,NA,NA,NA,NA,NA,NA,NA,NA,NA,NA,NA,NA,NA
105017,CWHwh1,54.0475,-131.880554,8,KLIKI,NA,NA,NA,NA,NA,NA,NA,NA,NA,NA,NA,NA,NA,NA,NA,NA,NA,NA,NA,NA,NA,NA,NA,NA
105019,CWHwh1,53.552778,-132.287506,158,MARIE LAKE N,-1.081818182,264,0,0.1,75,-0.1,77,31,39,116,-4.813688213,-0.333333333,-0.1,-0.283333333,0.616666667,-0.2,-0.766666667,-0.1,-0.4,0,0,-0.1,-0.166666667,1.333333333
105020,CWHwh2,53.533333,-132.295273,419,MARIE LK RID,NA,NA,0.491666667,0.35,20,0.6,-51,24,-33,NA,0.120143885,0.266666667,0.35,0.416666667,1.133333333,0.25,-0.233333333,-0.033333333,-0.033333333,0.433333333,0.766666667,0.733333333,0.866666667,1.833333333
105027,CWHwh1,53.190278,-131.934723,178,SACHS CREEK,NA,NA,-0.191666667,-0.1,NA,-0.3,NA,NA,NA,NA,NA,-0.266666667,-0.266666667,-0.3,0.166666667,-0.2,-0.333333333,0,-0.166666667,0,-0.2,-0.433333333,-0.433333333,0.433333333
105028,CWHwh2,53.145833,-132.032776,585,SKIDEGATE N,NA,NA,NA,NA,NA,0.55,NA,NA,NA,NA,NA,0.316666667,0.466666667,0.25,NA,NA,0.033333333,0.1,-0.233333333,NA,0.7,0.733333333,0.833333333,NA
105029,CWHwh1,53.33,-132.175827,149,SURVEY CR,-0.248600175,61,-0.1375,-0.35,28,0.2,38,16,-23,29,-1.437656904,-0.316666667,0.083333333,-0.233333333,-0.083333333,0.55,0.433333333,1.1,0.7,0.033333333,-1.066666667,-0.833333333,-1.166666667,-0.3
105033,CWHwh1,53.913889,-132.086105,75,WATUN CREEK,NA,NA,NA,NA,NA,NA,NA,NA,NA,NA,NA,NA,NA,NA,NA,NA,NA,NA,NA,NA,NA,NA,NA,NA
105041,CWHvh3,53.363333,-132.4375,205,PENTHOUSE,-0.299472574,15,-0.566666667,-0.45,43,-1.1,-33,27,-26,47,-3.515960912,-0.516666667,-1.183333333,-0.866666667,0.2,-0.75,-1.233333333,-2.133333333,-1.566666667,-0.2,0.3,-0.233333333,-0.066666667,0.7
1051350,CWHvh3,51.933333,-131.016663,0,CAPE ST JAME,NA,NA,0.179166667,0.85,NA,-0.2,NA,NA,NA,NA,NA,0.2,-0.35,0.066666667,0.9,-1.05,0.3,-0.433333333,-0.166666667,1.233333333,0.2,-0.266666667,0.2,0.566666667
1054222,CWHvh3,53.31556,-132.771896,9,KINDAKUN ROC,NA,NA,0.5,1.45,NA,-0.9,NA,NA,NA,NA,NA,1.25,-1.216666667,0.216666667,1.85,-2.45,-0.233333333,-3.333333333,-1.566666667,1.1,2.633333333,0.8,2,2.6
1054500,CWHvh3,54.25,-133.050003,77,LANGARA,0.047955064,36,0.441666667,1.4,26,-0.7,3,21,8,4,-2.234401349,0.833333333,-0.8,0.25,1.283333333,-2,0.1,-1.7,-0.6,0.966666667,1.466666667,0.2,1.1,1.6
1054500,CWHvh3,54.25528,-133.058105,47,LANGARA,0.047955064,36,0.441666667,1.4,26,-0.7,3,21,8,4,-2.234401349,0.833333333,-0.8,0.25,1.283333333,-2,0.1,-1.7,-0.6,0.966666667,1.466666667,0.2,1.1,1.6
1054503,CWHvh3,54.25533,-133.058304,47,LANGARA ISLA,1.169781931,-144,0.566666667,1.5,9,-0.2,-54,11,-24,-77,-0.74965035,1.066666667,-0.383333333,0.383333333,1.3,-1.7,0.2,-1.3,-0.6,0.733333333,1.833333333,0.533333333,1.266666667,1.966666667
1054920,CWHwh1,54.02722,-132.125,11,MASSET AIRPO,0.874198147,-98,0.0625,0.5,0,-0.2,-44,9,-32,-32,-0.344303797,-0.066666667,-0.116666667,0.3,0.333333333,-0.7,0.066666667,-0.133333333,0.433333333,0.533333333,-0.3,0,0.066666667,0.233333333
10549BN,CWHwh1,54.033333,-132.066666,0,MASSET CFS,-0.435503472,51,-0.083333333,-0.55,67,-0.45,31,43,-4,-20,-6.37211329,0.033333333,-0.366666667,0.15,-0.05,0.1,0.5,-0.7,0.266666667,0.8,-0.333333333,-0.133333333,0.033333333,-0.8
1054RKF,CWHwh1,54.033333,-131.96666,0,MASSET TOW H,NA,NA,NA,0.1,NA,NA,NA,NA,NA,75,NA,NA,NA,NA,0.15,NA,NA,NA,-0.2,-0.033333333,NA,NA,NA,0.333333333
10551R8,CWHvh3,52.933333,-132.133331,30,MORESBY ISLA,-1.00736469,1329,0.170833333,0.85,290,-0.45,384,203,199,543,-4.6534645,0.3,-0.45,0.083333333,0.85,-1.3,0.333333333,-0.966666667,0.133333333,1.4,0.166666667,0.166666667,0.033333333,0.3
1055950,CWHwh1,53.05,-132.050003,108,PALLANT CREE,-0.537486107,360,0.420833333,0.35,110,0.2,181,31,60,88,-4.093984962,0.483333333,0.316666667,0.3,0.483333333,-0.15,0.9,0.833333333,0.7,0.833333333,0.166666667,-0.2,0,0.233333333
1056250,CWHwh1,53.683333,-132.183334,24,PORT CLEMENT,0.833644237,-113,0.0625,-0.35,-47,0.2,-35,-15,-35,-28,5.723323615,0.166666667,0.116666667,0.083333333,-0.216666667,0.45,0.3,0.166666667,0.166666667,-0.066666667,0.033333333,0.166666667,-0.1,-0.366666667
1056869,CWHwh1,54.15914,-131.661301,8,ROSE SPIT (A,NA,NA,0.425,0.85,NA,0.35,NA,NA,NA,NA,NA,0.533333333,0.483333333,0.15,0.333333333,-0.5,-0.066666667,0.233333333,-0.633333333,-0.066666667,1.233333333,0.733333333,1.033333333,0.633333333
1057050,CWHwh1,53.25389,-131.813095,8,SANDSPIT A,4.249095607,-640,0.416666667,0.45,-66,0.4,-250,-7,-148,-235,8.657575758,0.483333333,0.416666667,0.283333333,0.383333333,-0.05,0.366666667,0.133333333,-0.033333333,0.466666667,0.7,0.6,0.5,0.2
1057055,CWHwh1,53.25389,-131.813095,8,SANDSPIT AWO,7.795792301,-942,0.4375,0.35,-187,0.45,-355,-79,-209,-299,35.38803828,0.583333333,0.4,0.266666667,0.4,0.1,0.2,-0.266666667,-0.4,0.233333333,1.066666667,0.966666667,0.833333333,0.466666667
1057192,CWHvh3,52.883333,-131.983337,6,SEWELL INLET,-0.812114132,821,0.004166667,-0.05,222,0.25,239,113,159,311,-4.103510532,0.116666667,0.15,-0.083333333,-0.066666667,0.3,0.166666667,0.366666667,0.133333333,0.133333333,0.066666667,-0.066666667,-0.2,-0.166666667
1058003,CWHvh3,52.766667,-132.050003,0,TASU SOUND,-0.030880765,121,0.383333333,0.7,63,0.15,19,32,-15,84,-0.769444444,0.35,0.1,0.383333333,0.8,-0.55,0.133333333,-0.033333333,0.133333333,0.766666667,0.466666667,0.333333333,0.633333333,0.833333333
1058190,CWHwh1,53.5,-131.949997,26,TLELL,2.911310452,-331,0.1625,0.1,-36,0.15,-136,1,-79,-117,4.357142857,0.133333333,0.1,0.15,0.166666667,0.05,0.1,0.166666667,0.066666667,0.033333333,0.166666667,0.133333333,0.133333333,0.2
105PA91,CWHwh1,53.76361,-132.299194,7,SEWALL MASSE,1.186092715,-146,0.15,0.2,23,0.1,-43,22,-35,-90,-1.739007092,0.183333333,0.116666667,0.183333333,0.216666667,-0.1,0.266666667,0.133333333,0.2,0.2,0.1,0,0.166666667,0.233333333
106,CWHws1,54.17,-128.576706,55,KITPARK,NA,NA,NA,NA,14,0,NA,5,NA,NA,-1.343198091,0.083333333,0,0.15,NA,NA,0.6,0.533333333,0.6,NA,-0.433333333,-0.533333333,-0.3,NA
106005,CWHws1,54.184722,-128.633331,266,RALEY 2,NA,NA,NA,NA,NA,NA,NA,NA,NA,NA,NA,NA,NA,NA,NA,NA,NA,NA,NA,NA,NA,NA,NA,NA
106006,CWHws1,54.172222,-128.613892,56,WEDEENE 2,NA,NA,NA,NA,NA,NA,NA,NA,NA,NA,NA,NA,NA,NA,NA,NA,NA,NA,NA,NA,NA,NA,NA,NA
106007,CWHws1,54.169444,-128.541672,162,FIRE 2,NA,NA,NA,NA,NA,-0.15,NA,NA,NA,NA,NA,-0.65,-0.083333333,NA,NA,NA,-1.166666667,-0.566666667,NA,NA,-0.033333333,0.4,NA,NA
1060080,CWHvh2,51.6,-127.860001,34,ADDENBROKE I,-0.418930295,308,0.495833333,0.2,60,0.9,112,43,41,111,-0.282367758,0.316666667,0.816666667,0.583333333,0.166666667,0.7,0.2,0.9,0.333333333,0.333333333,0.533333333,0.733333333,0.833333333,0.1
1060080,CWHvh2,51.60353,-127.863899,12,ADDENBROKE I,-0.418930295,308,0.495833333,0.2,60,0.9,112,43,41,111,-0.282367758,0.316666667,0.816666667,0.583333333,0.166666667,0.7,0.2,0.9,0.333333333,0.333333333,0.533333333,0.733333333,0.833333333,0.1
106033,CWHvm1,50.511944,-126.143608,64,BOUGIE BAY,NA,NA,-0.370833333,-0.4,NA,-0.25,NA,NA,NA,NA,NA,-0.5,-0.183333333,-0.333333333,-0.466666667,0.15,-0.966666667,-0.333333333,-0.3,-0.633333333,-0.033333333,-0.133333333,-0.466666667,-0.3
1060330,CWHws2,55.683333,-129.5,522,ALICE ARM,-0.102897831,173,0.991666667,1.7,72,0.8,5,58,56,55,-2.071830986,0.9,0.75,0.733333333,1.683333333,-0.9,0.766666667,1.333333333,0.833333333,1.033333333,1.033333333,0.266666667,0.533333333,2.333333333
1060331,CWHws1,55.466667,-129.46666,0,ALICE ARM,NA,NA,NA,NA,NA,NA,NA,NA,NA,NA,NA,NA,NA,NA,NA,NA,NA,NA,NA,NA,NA,NA,NA,NA
106038,CWHxm2,50.313056,-125.392502,156,SONORA IS,-0.028375039,25,0.129166667,-0.55,23,-0.1,-46,16,0,54,-1.922920892,0,-0.133333333,0.516666667,0.233333333,0.45,-1.1,-1.033333333,-0.4,-0.633333333,1,0.766666667,1.433333333,1
106039,CWHvm1,50.586667,-126.205559,18,CALL INLET,0.089553924,21,0.3625,0.45,-15,0.1,-24,0,12,33,2.030726257,0.65,0.05,0.216666667,0.433333333,-0.35,0.6,-0.433333333,-0.1,0.466666667,0.7,0.633333333,0.533333333,0.4
1060811,CWHvh2,52.185,-128.156693,40,BELLA BELLA,NA,NA,NA,NA,-18,NA,-56,56,NA,44,NA,-0.4,NA,NA,NA,NA,0.5,NA,NA,NA,-1.3,NA,NA,NA
1060840,CWHds2,52.366667,-126.683334,21,BELLA COOLA,-1.335297691,152,-0.2875,-0.7,31,0,52,21,15,63,-4.066666667,-0.4,-0.016666667,-0.1,-0.733333333,0.7,-0.066666667,-0.266666667,0.066666667,-0.766666667,-0.733333333,0.233333333,-0.266666667,-0.7
1060841,CWHds2,52.3875,-126.595802,37,BELLA COOLA,1.652138158,-146,0.025,-0.1,-15,0.3,-4,-6,-57,-78,3.478947368,-0.1,0.25,0.183333333,-0.133333333,0.3,0.333333333,0.466666667,0.533333333,-0.066666667,-0.533333333,0.033333333,-0.166666667,-0.2
1060842,CWHms2,52.366667,-126.816666,127,BELLA COOLA,-0.007819502,85,0.733333333,1.05,46,0.45,58,0,24,2,-2.248927875,0.333333333,0.516666667,0.883333333,1,-0.6,-0.133333333,0.133333333,0.566666667,0.7,0.9,0.9,1.2,1.4
1060R0K,CWHvh2,53.5,-130.633301,3,BONILLA ISLA,9.49288425,-1199,0.4375,1.5,-327,-1.1,-404,-158,-295,-341,21.0538206,0.733333333,-1,0.6,1.616666667,-2.6,-0.833333333,-3.233333333,-1.466666667,0.766666667,2.4,1.233333333,2.666666667,2.366666667
1061458,CWHvm1,52.18722,-127.469704,0,CATHEDRAL PO,1.461400629,-572,0.070833333,-0.3,-43,0.6,-172,6,-92,-314,1.919009371,-0.316666667,0.4,0.266666667,-0.266666667,0.9,-1.366666667,-0.566666667,-0.766666667,-1.233333333,0.833333333,1.466666667,1.3,0.7
1062251,CWHwh1,53.03028,-131.601395,10,CUMSHEWA ISL,10.9259678,-1200,0.704166667,1.45,-270,-0.1,-419,-119,-293,-369,53.42634731,1.016666667,-0.133333333,0.283333333,1.45,-1.55,-0.1,-1.633333333,-1.166666667,0.833333333,2.033333333,1.466666667,1.733333333,1.966666667
1062295,CWHvh2,51.583333,-127.583336,146,DAWSONS LAND,NA,NA,NA,NA,NA,NA,NA,NA,NA,NA,NA,NA,NA,NA,NA,NA,NA,NA,NA,NA,NA,NA,NA,NA
1062544,CWHvh2,52.1833,-128.116699,28,DRYAD POINT,0.964756672,-276,0.575,0.4,-69,0.95,-88,-39,-72,-77,2.970420624,0.583333333,0.733333333,0.583333333,0.4,0.55,0.333333333,0.6,0,0.4,0.733333333,0.966666667,1.166666667,0.5
1062544,CWHvh2,52.185,-128.112198,0,DRYAD POINT,0.964756672,-276,0.575,0.4,-69,0.95,-88,-39,-72,-77,2.970420624,0.583333333,0.733333333,0.583333333,0.4,0.55,0.333333333,0.6,0,0.4,0.733333333,0.966666667,1.166666667,0.5
1062593,CWHvm1,50.6,-126.316666,0,EAST CRACROF,-0.312464907,106,0.625,0.9,-8,0.4,101,-9,-6,20,1.857142857,0.6,0.45,0.866666667,0.783333333,-0.5,0.333333333,0.366666667,0.966666667,0.966666667,0.866666667,0.533333333,0.766666667,0.7
1062646,CWHvh1,51.24722,-127.835403,7,EGG ISLAND,0.074819767,-38,-0.045833333,-0.1,-21,-0.2,-25,-1,-30,19,0.452151463,-0.183333333,-0.066666667,0.266666667,-0.1,-0.1,-0.5,-0.3,-0.066666667,-0.3,0.033333333,0.166666667,0.6,0
1062646,CWHvh1,51.25,-127.830002,0,EGG ISLAND,0.074819767,-38,-0.045833333,-0.1,-21,-0.2,-25,-1,-30,19,0.452151463,-0.183333333,-0.066666667,0.266666667,-0.1,-0.1,-0.5,-0.3,-0.066666667,-0.3,0.033333333,0.166666667,0.6,0
1062745,CWHvh2,53.05,-129.683334,27,ETHELDA BAY,-0.109600637,49,0.041666667,0,20,0,1,10,-23,62,-0.425327511,0.1,-0.05,0.083333333,0.033333333,-0.1,0.266666667,0.133333333,0.2,0.033333333,-0.066666667,-0.333333333,-0.033333333,0.033333333
1063298,CWHvh2,54.5667,-130.699997,0,GREEN ISLAND,0.133996408,40,0.520833333,0.3,19,0.45,16,1,17,6,0.111780455,0.4,0.633333333,0.733333333,0.516666667,0.15,-0.466666667,0.366666667,-0.333333333,-0.4,1.366666667,0.8,1.7,1.333333333
1063298,CWHvh2,54.56861,-130.708298,7,GREEN ISLAND,0.133996408,40,0.520833333,0.3,19,0.45,16,1,17,6,0.111780455,0.4,0.633333333,0.733333333,0.516666667,0.15,-0.466666667,0.366666667,-0.333333333,-0.4,1.366666667,0.8,1.7,1.333333333
1063339,CWHvh2,53.4167,-129.25,0,HARTLEY BAY,-0.426819236,559,0.654166667,1.15,171,0.95,212,97,69,181,-1.176375405,0.6,0.833333333,0.283333333,1,-0.3,0.7,1.6,0.4,0.966666667,0.5,0.066666667,0.166666667,1.033333333
1063339,CWHvh2,53.416667,-129.25,0,HARTLEY BAY,-0.426819236,559,0.654166667,1.15,171,0.95,212,97,69,181,-1.176375405,0.6,0.833333333,0.283333333,1,-0.3,0.7,1.6,0.4,0.966666667,0.5,0.066666667,0.166666667,1.033333333
1063461,CWHvh1,50.94001,-127.647202,0,HERBERT ISLA,9.922789456,-1178,-0.295833333,0.55,-196,-1.7,-400,-66,-278,-433,15.61449275,-0.2,-1.433333333,0.15,0.4,-2.25,-1.566666667,-2.766666667,-1.366666667,-0.666666667,1.066666667,-0.2,1.766666667,1.366666667
1063496,CWHvh2,54.1725,-130.360794,0,HOLLAND ROCK,8.946654773,-1322,0.3125,1.45,-343,-0.75,-505,-143,-298,-376,15.53937008,0.616666667,-0.783333333,0.183333333,1.333333333,-2.2,-0.366666667,-2.2,-1.133333333,0.833333333,1.5,0.633333333,1.5,1.933333333
1063690,CWHvh2,52.26973,-128.406693,13,IVORY ISLAND,0.317490541,-88,0.291666667,0.3,32,0.3,-68,28,-13,-35,-0.358291457,0.283333333,0.1,0.35,0.433333333,0,-0.266666667,-1.133333333,-0.9,0.266666667,0.933333333,1.233333333,1.6,0.6
1064020,CWHvm1,53.56333,-127.9431,80,KEMANO,-0.498049194,125,0.195833333,0.4,26,-0.25,44,17,14,50,-3.099065421,0.116666667,-0.166666667,0.316666667,0.416666667,-0.55,0.4,0.166666667,0.466666667,0.666666667,-0.166666667,-0.4,0.066666667,0.266666667
1064138,CWHvm1,53.833333,-128.483337,201,KILDALA,0.064257964,75,0.683333333,0.9,20,0.25,32,12,19,12,-0.728880866,0.683333333,0.233333333,0.716666667,1,-0.65,0.433333333,-0.033333333,0.3,0.633333333,0.833333333,0.6,1.033333333,1.366666667
1064227,CWHvm1,50.95,-126.199997,11,KINGCOME INL,0.11351243,-19,0.1375,0.15,-18,0.1,-39,4,-9,26,0.94379085,0.166666667,0.05,0.266666667,0.166666667,-0.05,0.066666667,0,0.233333333,0.2,0.166666667,0.2,0.3,0.133333333
1064288,CWHvm1,54.05,-128.683334,18,KITIMAT,-0.616487133,154,-0.058333333,0.15,5,-0.1,36,1,-17,133,-0.481171548,-0.166666667,-0.133333333,0.016666667,-0.05,-0.25,0.033333333,0.233333333,0.333333333,0.2,-0.366666667,-0.4,-0.2,-0.3
1064289,CWHvm1,54,-128.699997,13,KITIMAT,-1.016433942,395,0.15,-0.7,122,0.6,187,38,89,81,-4.820395738,0.033333333,0.45,0.116666667,-0.1,1.3,-0.166666667,0.1,-0.066666667,-0.1,0.233333333,0.8,0.4,-0.2
1064320,CWHvm1,54.05361,-128.634201,102,KITIMAT TOWN,-0.353996012,126,0.166666667,0.3,40,0.4,47,24,15,41,-2.025984252,-0.016666667,0.266666667,0.35,0.166666667,0.1,-0.133333333,0.266666667,0.033333333,0.033333333,0,0.366666667,0.566666667,0.3
1064321,CWHvm1,54.00972,-128.705002,22,KITIMAT 2,-0.764202525,347,0.370833333,0.5,12,0.5,109,1,55,182,0.107550645,0.25,0.5,0.4,0.433333333,0,0.266666667,0.4,0.333333333,0.5,0.233333333,0.5,0.466666667,0.366666667
1064375,CWHvm1,51.1,-125.583336,6,KNIGHT INLET,NA,NA,NA,NA,NA,NA,NA,NA,NA,NA,NA,NA,NA,NA,NA,NA,NA,NA,NA,NA,NA,NA,NA,NA
1064497,CWHws1,54.4,-128.516663,112,LAKELSE LAKE,NA,249,NA,NA,12,NA,49,2,39,158,NA,NA,NA,NA,NA,NA,NA,NA,NA,NA,NA,NA,NA,NA
1064591,CWHvh2,54.116667,-130.350006,0,LAWYER ISLAN,-0.263867188,110,0.2125,0.55,4,-0.3,31,-21,49,51,-0.517881706,0.15,-0.266666667,0.3,0.566666667,-0.85,-0.7,-1.166666667,-0.566666667,-0.2,0.9,0.633333333,1.266666667,1.233333333
1064591,CWHvh2,54.1167,-130.350006,0,LAWYER ISLAN,-0.263867188,110,0.2125,0.55,4,-0.3,31,-21,49,51,-0.517881706,0.15,-0.266666667,0.3,0.566666667,-0.85,-0.7,-1.166666667,-0.566666667,-0.2,0.9,0.633333333,1.266666667,1.233333333
1064728,CWHvh2,54.3585,-130.728897,0,LUCY ISLAND,NA,NA,0.583333333,1.25,NA,0.2,NA,NA,NA,NA,NA,0.616666667,-0.15,0.616666667,1.25,-1.15,-0.033333333,-0.9,-0.466666667,0.9,1.366666667,0.6,1.7,1.7
1065010,CWHvh2,52.26167,-128.719406,4,MCINNES ISLA,0.311840946,-56,0.404166667,0.6,-14,0.45,-29,6,-48,15,0.98951049,0.366666667,0.25,0.55,0.55,-0.25,-0.2,-0.233333333,-0.266666667,0.5,0.933333333,0.833333333,1.366666667,0.7
1065010,CWHvh2,52.26,-128.710007,6,MCINNES ISLA,0.311840946,-56,0.404166667,0.6,-14,0.45,-29,6,-48,15,0.98951049,0.366666667,0.25,0.55,0.55,-0.25,-0.2,-0.233333333,-0.266666667,0.5,0.933333333,0.833333333,1.366666667,0.7
1065130,CWHwm,55,-129.75,18,MILL BAY,-0.314893926,122,0.170833333,0.4,65,-0.2,27,32,58,5,-2.817125382,0.016666667,0.066666667,0.35,0.25,-0.6,0.066666667,0.066666667,0.266666667,0.133333333,0.066666667,0.166666667,0.433333333,0.266666667
1065170,CWHvm1,50.616667,-126.316666,402,MINSTREL ISL,1.58282767,-19,2.3125,3,4,1.55,-36,11,-6,13,3.605076142,2.3,1.55,2.75,2.75,-1.45,1.7,0.566666667,2.2,2.133333333,2.8,2.533333333,3.3,3.466666667
1065670,CWHvm1,52.35,-127.683334,48,OCEAN FALLS,0.061736681,49,0.454166667,0.2,26,0.7,-7,-8,-28,92,0.315398717,0.566666667,0.583333333,0.35,0.216666667,0.6,0.2,0.6,0.266666667,-0.3,0.933333333,0.566666667,0.433333333,0.733333333
1065945,ICHmc2,54.766667,-128.266663,119,PACIFIC,NA,NA,NA,-0.65,NA,-0.1,NA,NA,NA,NA,NA,NA,-0.233333333,-0.183333333,-0.25,0.55,NA,-1,-0.6,-0.5,NA,0.533333333,0.133333333,-0.1
1066202,CWHvh2,52.066667,-127.949997,0,POINTER ISLA,1.710986881,-480,0.554166667,0.5,-68,0.65,-177,-33,-100,-170,2.717877095,0.466666667,0.466666667,0.5,0.483333333,0.15,0.3,0.266666667,0.033333333,0.3,0.733333333,0.666666667,1.066666667,0.666666667
1066202,CWHvh2,52.0667,-127.949997,0,POINTER ISLA,1.710986881,-480,0.554166667,0.5,-68,0.65,-177,-33,-100,-170,2.717877095,0.466666667,0.466666667,0.5,0.483333333,0.15,0.3,0.266666667,0.033333333,0.3,0.733333333,0.666666667,1.066666667,0.666666667
1066420,MHmm1,56.05,-130.016663,560,PREMIER,0.128871276,181,1.354166667,2.2,13,0.95,-4,-3,34,154,1.075979557,1.166666667,1.016666667,1.266666667,2.166666667,-1.25,1.033333333,0.5,0.733333333,1.366666667,1.4,1.533333333,1.8,2.866666667
1066480,CWHvh2,54.283333,-130.383331,12,PRINCE RUPER,0.446840045,-111,0.191666667,0.5,-16,-0.3,-87,2,-69,43,0.052459016,-0.016666667,-0.066666667,0.3,0.65,-0.8,-0.2,0.133333333,0.4,0.5,0.166666667,-0.266666667,0.2,0.8
1066483,CWHvh2,54.28611,-130.444702,37,PRINCE RUPER,1.249057207,-352,0.133333333,-0.25,-132,0.5,-138,-62,-87,-65,5,0.116666667,0.283333333,0.266666667,-0.033333333,0.75,-0.233333333,-0.233333333,-0.166666667,-0.266666667,0.466666667,0.8,0.6,0.2
1066JFQ,CWHdm,50.55,-125.366669,0,PHILLIPS ARM,NA,NA,NA,NA,NA,NA,NA,NA,NA,NA,NA,NA,NA,NA,NA,NA,NA,NA,NA,NA,-0.2,NA,NA,NA
1067005,CWHvm1,54.3,-129.366669,12,SALVUS CAMP,NA,NA,-0.420833333,0,NA,-0.4,NA,NA,-21,7,NA,-0.383333333,-0.533333333,-0.65,-0.216666667,-0.4,-0.566666667,-0.9,-1.066666667,-0.266666667,-0.2,-0.266666667,-0.233333333,-0.066666667
1067740,CWHwm,55.95,-129.983337,32,STEWART,-0.114089541,4,-0.154166667,0.05,26,-0.55,-31,22,27,-14,-2.37137746,-0.516666667,-0.216666667,-0.033333333,0.05,-0.6,-0.266666667,0.6,0.2,-0.3,-0.766666667,-1.133333333,-0.166666667,0.4
1067742,CWHwm,55.93611,-129.985001,11,STEWART A,-0.478153516,100,0.0625,-0.2,11,-0.2,33,6,25,36,-0.873567468,0.266666667,0.05,-0.05,-0.116666667,0,0.166666667,-0.133333333,-0.2,-0.4,0.366666667,0.233333333,0.2,0.066666667
1067745,CWHwm,55.95,-129.983337,32,STEWART BCHP,-0.381156317,100,0.2,-0.1,2,0.55,3,1,24,72,0.852336449,0.316666667,0.35,0.083333333,-0.05,0.65,0.433333333,-0.366666667,0,-0.033333333,0.2,0.966666667,0.266666667,-0.066666667
1067776,CWHds2,52.36806,-126.0672,176,STUIE TWEEDS,-0.228163094,-3,-0.183333333,-0.45,14,-0.2,22,4,-2,-27,-9.333333333,-0.05,-0.05,-0.183333333,-0.55,0.25,0.066666667,-0.333333333,-0.4,-0.766666667,-0.166666667,0.133333333,0.033333333,-0.333333333
1068130,CWHws1,54.46639,-128.577499,213,TERRACE A,0.289116143,-30,0.05,-0.25,9,0.2,-21,7,-7,-9,-0.864705882,-0.05,0.3,0.283333333,-0.233333333,0.45,-0.233333333,-0.2,0,-0.566666667,0.233333333,0.7,0.566666667,0.1
1068131,CWHws1,54.50194,-128.624695,55,TERRACE PCC,0.855748624,-62,0.129166667,0.35,6,-0.15,-12,0,-3,-47,-1.434640523,0.083333333,-0.066666667,0.216666667,0.183333333,-0.5,0.3,-0.1,0.3,0.333333333,-0.033333333,-0.033333333,0.133333333,0.033333333
1068250,CWHvh2,54.29472,-130.880295,9,TRIPLE ISLAN,5.140432961,-897,0.4875,1.45,-233,-0.7,-364,-104,-184,-246,8.401694915,0.766666667,-0.766666667,0.55,1.4,-2.15,-0.2,-1.933333333,-0.866666667,0.8,1.633333333,0.5,1.966666667,2
1068677,CWHvm1,51.683333,-127.25,77,WANNOCK RIVE,-0.315729952,118,-0.0625,-0.7,-28,0.65,13,-14,24,94,1.78259587,0.083333333,0.366666667,0.166666667,-0.866666667,1.35,-0.333333333,0.233333333,-0.1,-1.8,0.6,0.6,0.433333333,0.066666667
106CDL0,CWHxm2,50.4,-125.866669,0,HELMCKEN ISL,NA,NA,NA,NA,NA,NA,NA,-76,-92,-169,NA,NA,NA,-0.116666667,NA,NA,NA,NA,-1.433333333,NA,NA,NA,1.1,NA
106D289,CWHvm1,54.05,-128.683334,18,KITIMAT HATC,-1.080710009,264,-0.2875,-0.3,36,-0.3,114,21,27,101,-2.976424361,-0.35,-0.333333333,-0.133333333,-0.433333333,0,-0.266666667,-0.233333333,-0.066666667,-0.3,-0.433333333,-0.333333333,-0.1,-0.566666667
106Q669,CWHvh2,51.5,-127.5,291,WADHAMS CDF,NA,NA,1.116666667,1.1,NA,1.35,NA,NA,NA,NA,NA,1.116666667,1.15,1.366666667,0.933333333,0.15,1.166666667,1.366666667,1.433333333,0.666666667,1.166666667,0.933333333,1.3,1.1
107001,SBSdk,54.316667,-126.125,798,MAXAN 1,NA,NA,NA,-1.1,NA,-0.5,NA,1,NA,NA,NA,NA,-0.4,-0.4,-0.766666667,0.6,0.2,0,0.5,0.266666667,NA,-0.9,-1.3,-1.8
107002,SBSdk,54.333333,-126.125,829,MAXAN 2,NA,NA,NA,0.15,NA,0.1,NA,NA,NA,NA,NA,NA,0.283333333,0.083333333,0.116666667,-0.05,NA,-0.233333333,-0.4,-0.366666667,NA,0.7,0.566666667,0.6
1070573,SBSdk,54.44639,-125.459702,711,BABINE LAKE,1.13081761,4,0.7,1.65,10,0.4,6,9,-1,-10,-1.544444444,0.616666667,0.416666667,0.1,1.566666667,-1.25,-0.333333333,-0.933333333,-0.833333333,0.7,1.466666667,1.766666667,1.133333333,2.433333333
107077,ICHmc2,55.104167,-127.974167,413,ANDIMAUL LO,NA,NA,0.358333333,0.4,NA,0.4,NA,NA,NA,NA,NA,0.066666667,0.483333333,0.45,0.633333333,0,-0.766666667,-0.3,-0.5,-0.333333333,0.9,1.266666667,1.4,1.5
107089,ICHmc2,55.463889,-128.21666,422,KITWANGA ASB,NA,NA,NA,NA,NA,-0.45,NA,NA,NA,NA,NA,0,-0.6,-0.433333333,NA,NA,0.4,-0.033333333,-0.233333333,0.1,-0.3,-1.066666667,-0.533333333,NA
107113,ICHmc1,54.823056,-127.253334,655,KATHLYN,NA,NA,NA,NA,NA,-0.35,NA,NA,NA,NA,NA,NA,-0.233333333,NA,NA,NA,NA,-1.1,NA,NA,NA,0.533333333,NA,NA
107132,ESSFmc,54.795,-126.87278,1290,ASTLAIS,NA,NA,NA,NA,NA,1.75,NA,NA,NA,NA,NA,NA,1.816666667,NA,NA,NA,NA,1.733333333,NA,NA,NA,1.8,NA,NA
107146,SBSmc2,54.604167,-127.128334,757,TELKWA RIVER,NA,NA,NA,NA,NA,-0.05,NA,NA,NA,NA,NA,NA,0,NA,NA,NA,NA,0.3,NA,NA,NA,-0.3,NA,NA
107164,SBSdk,54.200556,-126.856667,656,OWEN,NA,NA,NA,NA,NA,-0.6,NA,NA,NA,NA,NA,-0.833333333,-0.583333333,-0.583333333,NA,NA,-0.866666667,0,0.033333333,NA,-0.7,-1.066666667,-1.1,NA
107165,SBSmc2,54.181389,-126.861115,925,OWEN LO,NA,NA,NA,0.35,NA,-0.2,NA,NA,NA,NA,NA,NA,-0.183333333,-0.45,0.45,-0.55,NA,-1.866666667,-2.2,-1.166666667,NA,1.6,1.3,2.066666667
107182,SBSmc2,54.723889,-126.168892,1091,SHOULDER LO,NA,NA,NA,NA,NA,NA,NA,NA,NA,NA,NA,NA,NA,NA,NA,NA,NA,NA,NA,NA,NA,NA,NA,NA
107186,SBSdk,54.526389,-126.238052,901,CESFORD HILL,NA,NA,NA,NA,NA,NA,NA,NA,NA,NA,NA,NA,NA,NA,NA,NA,NA,NA,NA,NA,NA,NA,NA,NA
107191,SBSmc2,54.455556,-125.583336,1056,PENDELTON,NA,NA,NA,NA,NA,NA,NA,NA,NA,NA,NA,NA,NA,NA,NA,NA,NA,NA,NA,NA,NA,NA,NA,NA
107199,ICHmc2,55.245833,-127.57917,331,NEW HAZLETON,NA,NA,-0.1875,-0.35,-25,-0.65,NA,-15,NA,NA,3.670711297,-0.283333333,-0.416666667,-0.316666667,0.166666667,-0.3,-0.966666667,-1.066666667,-0.766666667,-0.566666667,0.3,0.333333333,0.133333333,0.9
107248,SBSmc2,54.090278,-127.352776,917,NANIKA,NA,NA,NA,NA,NA,0,NA,NA,NA,NA,NA,NA,0.433333333,NA,NA,NA,NA,-0.533333333,NA,NA,NA,1.3,NA,NA
107253,SBSmc2,54.6375,-126.277779,1136,SHARON,NA,NA,-0.3,0.3,NA,-0.35,NA,NA,NA,NA,NA,-1.95,-0.116666667,0.5,0.166666667,-0.55,-2.166666667,-0.333333333,-0.133333333,-0.3,-1.833333333,0.1,1.033333333,0.733333333
107254,SBSdk,54.422222,-126.665276,822,MATTHEW,NA,NA,1.020833333,1.8,NA,0.75,NA,NA,NA,NA,NA,0.833333333,0.716666667,1.083333333,1.55,-1.05,0.133333333,0,0.433333333,0.266666667,1.533333333,1.533333333,1.833333333,2.733333333
107255,ESSFmc,54.451389,-126.656944,1214,HARRY,NA,NA,0.3625,0.8,NA,0.55,NA,NA,NA,NA,NA,0.15,0.383333333,0.233333333,0.683333333,-0.35,-0.633333333,-0.2,-0.633333333,-0.266666667,1.033333333,1.066666667,1.1,1.533333333
107256,SBSdk,54.5125,-126.334724,672,FOXY,NA,NA,NA,NA,NA,-0.95,NA,NA,NA,NA,NA,-0.583333333,-0.883333333,-0.466666667,NA,NA,-0.133333333,-0.666666667,-0.2,NA,-1.033333333,-1.2,-0.733333333,NA
107267,SBSdk,54.988056,-127.28611,558,SWANSO RANCH,NA,NA,0.241666667,0.85,NA,0.25,NA,NA,NA,NA,NA,0.066666667,0.2,0.133333333,0.666666667,-0.5,-0.333333333,-0.233333333,-0.5,-0.333333333,0.366666667,0.633333333,0.766666667,1.566666667
1072692,ESSFmc,54.19861,-126.276604,1280,EQUITY SILVE,1.560320088,-53,0.070833333,0,6,0.25,-23,8,-14,-24,-0.042553191,0.05,0.2,-0.05,-0.016666667,0.25,0.033333333,0,-0.233333333,0.366666667,-0.033333333,0.5,0.033333333,-0.4
107275,CWHws1,54.495833,-128.493057,178,THORNHILL MT,NA,NA,NA,-0.1,NA,NA,NA,NA,NA,NA,NA,-0.966666667,NA,-1.216666667,-0.066666667,NA,-1.766666667,NA,-2.533333333,-0.466666667,-0.166666667,NA,0,0.433333333
107289,CWHvh2,54.275,-130.34166,424,HAYES 1300,NA,NA,NA,NA,NA,-0.7,NA,NA,NA,NA,NA,0.116666667,-0.2,NA,NA,NA,-0.133333333,-0.066666667,NA,NA,0.266666667,-0.333333333,NA,NA
107290,MHwh1,54.280556,-130.319443,615,HAYES,NA,NA,NA,NA,NA,0.2,NA,NA,NA,NA,NA,NA,-0.216666667,NA,NA,NA,NA,-0.766666667,NA,NA,NA,0.433333333,NA,NA
1072902,SBSmc2,55.316667,-126.616669,781,FORT BABINE,-0.646655702,1,-0.429166667,-0.85,-1,-0.05,2,-2,2,-1,0.135877863,-0.4,-0.116666667,-0.3,-0.8,0.9,-0.066666667,0.433333333,0.3,-0.3,-0.633333333,-0.666666667,-0.9,-1.4
107312,ICHmc1,55.716667,-128.770828,563,KINSKUCH,NA,NA,NA,NA,NA,-1.75,NA,NA,NA,NA,NA,NA,-1.766666667,-1.633333333,NA,NA,NA,-2.766666667,-3.266666667,NA,NA,-0.766666667,0,NA
107318,ICHmc1,56.020833,-129.17778,269,FISH LADDER,NA,NA,NA,NA,NA,0.45,NA,NA,NA,NA,NA,0.283333333,0.5,-0.35,NA,NA,-0.066666667,0.1,-0.3,NA,0.733333333,0.8,-0.4,NA
107324,ICHvc,56.316667,-129.308334,476,SALADAMIS,NA,NA,NA,NA,NA,NA,NA,NA,NA,NA,NA,-0.283333333,NA,-0.383333333,NA,NA,-0.7,NA,-0.533333333,NA,0.233333333,NA,-0.233333333,-1.1
1073347,ICHmc2,55.2,-127.73333,208,HAZELTON TEM,-3.546090535,79,-0.166666667,-0.95,15,0.15,16,13,10,40,-3.074074074,-0.166666667,0.133333333,-0.166666667,-0.566666667,1,-0.166666667,0.333333333,0.3,-0.366666667,-0.166666667,-0.166666667,-0.533333333,-0.766666667
107359,ESSFmc,54.769444,-127.263885,1552,CRATER LAKE,NA,NA,0.1625,0.6,NA,0.2,NA,5,NA,NA,NA,1.11E-16,0.016666667,0.05,0.583333333,-0.4,-0.333333333,0,-0.2,0.2,0.333333333,-0.066666667,0.2,1.066666667
1073612,SBSdk,54.383333,-126.716667,588,HOUSTON,NA,NA,NA,NA,NA,NA,NA,NA,NA,NA,NA,NA,NA,NA,NA,NA,0.3,-0.266666667,NA,NA,NA,NA,NA,NA
1073615,SBSdk,54.39639,-126.667801,594,HOUSTON,-0.23254717,23,0.675,1,18,0.6,6,7,11,-1,-3.942307692,0.483333333,0.666666667,0.55,0.9,-0.4,0.3,0.366666667,0.4,0.766666667,0.766666667,1.066666667,0.8,1.033333333
107382,SBSdk,54.920833,-127.275002,477,UTZ-CDA,NA,NA,NA,NA,NA,0,NA,NA,NA,NA,NA,NA,-0.183333333,NA,NA,NA,NA,0.2,NA,NA,NA,-0.566666667,NA,NA
107393,SBSdk,54.393056,-126.718056,585,HOUSTON HELI,NA,-33,NA,0,3,NA,-5,6,-11,-23,NA,-0.666666667,NA,-0.55,-0.3,NA,-0.633333333,NA,-0.533333333,-0.266666667,-0.6,NA,-0.566666667,-0.333333333
107398,ICHmc1,54.833333,-127.258331,627,STOREY FARM,NA,NA,NA,NA,NA,NA,NA,NA,NA,NA,NA,NA,NA,NA,NA,NA,NA,NA,NA,NA,NA,NA,NA,NA
1073L4F,ICHmc2,55.266667,-127.616669,335,HAZELTON,NA,NA,0.354166667,0.3,61,0.25,NA,20,NA,NA,-9.686567164,0.333333333,0.333333333,0.383333333,0.366666667,-0.05,0.233333333,0.1,0.433333333,0.366666667,0.433333333,0.466666667,0.333333333,0.366666667
1074336,ICHmc2,55.116667,-128.050003,191,KITWANGA,NA,NA,-0.129166667,-0.45,6,-0.05,NA,-2,-4,NA,-1.955895197,-0.3,-0.1,0.066666667,-0.183333333,0.4,-0.166666667,0,-0.033333333,-0.2,-0.433333333,-0.2,0.066666667,-0.166666667
1075252,ICHmc2,55.483333,-127.833336,374,MURDER CREEK,NA,NA,0.0125,-0.25,NA,0.2,NA,NA,NA,NA,NA,-0.283333333,0.216666667,-0.016666667,0.033333333,0.45,-0.466666667,-0.033333333,0.066666667,-0.266666667,-0.1,0.566666667,-0.1,0.233333333
1075253,ICHmc2,55.516667,-127.800003,344,MURDER CREEK,-0.176996092,-2,-0.179166667,-0.35,22,-0.25,16,7,-6,-19,-4.339751553,-0.15,-0.183333333,-0.05,-0.133333333,0.1,0.1,0.1,0.3,0.233333333,-0.4,-0.566666667,-0.4,-0.5
1075384,ICHmc2,55.2375,-129.029404,185,NASS CAMP,-2.240943683,100,-0.795833333,-1.55,65,-0.5,41,41,28,-11,-11.245961,-0.85,-0.433333333,-0.75,-1.05,1.05,-0.933333333,-0.866666667,-0.766666667,-0.566666667,-0.866666667,-0.1,-0.733333333,-1.533333333
1075520,ICHmc2,55.233333,-127.599998,343,NEW HAZELTON,2.107243708,-20,0.570833333,0.95,-3,0.4,-6,4,-11,-7,2.306060606,0.35,0.35,0.65,1.033333333,-0.55,0.633333333,0.4,0.633333333,0.966666667,0.166666667,0.4,0.666666667,1.1
1076638,SBSdk,54.616667,-126.900002,530,QUICK,-2.36964657,33,-0.125,0,10,-0.3,12,7,10,5,-4.810280374,-0.05,-0.233333333,-0.3,-0.016666667,-0.3,0.1,-0.133333333,0.166666667,0.166666667,-0.2,-0.333333333,-0.766666667,-0.1
1076886,CWHws1,54.85,-128.800003,205,ROSSWOOD,-1.455813953,107,0.1875,0.15,83,0.3,55,50,18,-14,-13.73775216,0.116666667,0.2,0.166666667,0.266666667,0.25,0.033333333,-0.266666667,-0.1,0.433333333,0.3,0.666666667,0.433333333,0.1
1077500,SBSdk,54.82472,-127.1828,524,SMITHERS A,-1.195194647,33,0.195833333,0.35,12,0.5,14,7,5,7,-0.866396761,-0.033333333,0.466666667,0.266666667,0.183333333,0.15,-0.033333333,0.233333333,0.233333333,0.1,0.066666667,0.6,0.3,0.266666667
1077505,SBSdk,54.733333,-127.099998,526,SMITHERS CDA,-3.093910256,48,-0.220833333,0,20,-0.35,15,13,9,10,-7.441201717,-0.183333333,-0.316666667,-0.133333333,-0.15,-0.45,0.466666667,0.5,0.233333333,0.6,-0.833333333,-1.133333333,-0.5,-0.9
1077508,SBSdk,54.783333,-127.083336,589,SMITHERS 4E,NA,NA,0.025,0.3,NA,-0.45,-20,NA,NA,-32,NA,0.016666667,-0.333333333,0.05,0.366666667,-0.75,0.3,-0.033333333,0.166666667,0.466666667,-0.266666667,-0.733333333,0.033333333,0.166666667
1078070,SBSdk,54.65,-126.833336,683,TELKWA,0.821174004,-2,0.3,0.55,7,0.3,-3,7,-2,-5,-0.691304348,0.083333333,0.466666667,0.416666667,0.433333333,-0.25,-0.033333333,0.566666667,0.3,0.066666667,0.3,0.366666667,0.433333333,0.8
1078209,SBSmc2,54.81583,-126.163101,715,TOPLEY LANDI,-0.043425076,12,0.283333333,0.25,4,0.3,-1,1,4,9,0.20212766,0.283333333,0.433333333,0.066666667,0.35,0.05,-0.233333333,-0.166666667,-0.2,0.133333333,0.7,0.933333333,0.333333333,0.666666667
1078L3D,MHmm2,56.65,-130.449997,900,UNUK RIVER E,-0.948143054,314,-0.3,-0.15,41,-0.4,127,2,68,118,-2.037729549,-0.35,-0.45,-0.366666667,-0.033333333,-0.25,-0.2,-0.3,-0.266666667,-0.266666667,-0.5,-0.6,-0.466666667,0.1
107ADFE,ICHmc2,55.016667,-128.316666,171,CEDARVALE,-0.881535948,41,0.116666667,0.15,42,-0.05,-91,30,27,74,-12.55747126,0.166666667,0.066666667,0.2,0.133333333,-0.2,-0.1,-0.5,0.133333333,0.1,0.333333333,0.533333333,0.266666667,0.066666667
107G879,ICHmc2,55.28861,-127.170601,515,SUSKWA VALLE,-0.736224029,39,0.216666667,1.1,11,-0.25,20,2,11,6,-2.194047619,-0.116666667,-0.2,0.15,1.033333333,-1.35,-0.366666667,-0.366666667,-0.133333333,0.466666667,0.233333333,-0.033333333,0.333333333,1.7
1080284,IDFxm,52.083333,-123.283333,751,ALEXIS CREEK,-1.425373134,-3,-0.5375,-1.05,27,-0.5,-4,20,-2,-16,-15.89547739,-0.6,-0.433333333,-0.333333333,-0.983333333,0.45,-0.533333333,-0.6,-0.166666667,-0.8,-0.766666667,-0.166666667,-0.5,-1.166666667
1080289,SBPSdc,52.55,-123.183334,1164,ALEXIS CREEK,-2.580014124,7,-1.004166667,-0.85,38,-1.1,-2,21,7,-20,-12.37761194,-0.933333333,-1.133333333,-1.1,-0.95,-0.25,-0.366666667,-0.333333333,-0.5,0.2,-1.4,-1.933333333,-1.7,-2
1080431,SBPSxc,52.466667,-125.316666,1092,ANAHIM LAKE,NA,NA,-0.625,-0.95,NA,-0.85,NA,NA,NA,NA,NA,-0.733333333,-0.7,-0.533333333,-0.633333333,0.1,-0.233333333,-0.333333333,-0.4,-0.266666667,-1.133333333,-1.166666667,-0.566666667,-1
1080432,SBPSxc,52.516667,-125.083336,1237,ANAHIM LAKE,NA,NA,-0.491666667,-0.05,NA,-0.95,NA,-12,NA,NA,NA,-0.366666667,-0.883333333,-0.4,-0.316666667,-0.9,-0.133333333,-0.666666667,-0.5,-0.3,-0.5,-1.1,-0.2,-0.433333333
1080870,IDFdk4,51.666667,-123.066666,1213,BIG CREEK,10.72269303,-161,-0.254166667,-0.35,-4,-0.05,-72,11,-39,-61,1.134343434,-0.333333333,0.15,0.066666667,-0.8,0.3,0.433333333,0.5,0.533333333,0.233333333,-1.1,-0.2,-0.4,-1.833333333
10808G0,MSxv,51.266667,-123.099998,1751,BIG CREEK (A,NA,NA,NA,NA,NA,NA,NA,NA,NA,NA,NA,NA,NA,NA,NA,NA,NA,NA,NA,NA,NA,-0.933333333,NA,NA
1080930,MSdc1,50.783333,-122.816666,1181,BRALORNE,-0.600406504,83,1.041666667,-0.35,7,1.9,12,16,10,45,7.370967742,0.5,1.683333333,1.816666667,0.266666667,2.25,1.1,2.333333333,2.1,0.166666667,0,0.933333333,1.633333333,0.366666667
1081788,SBSdk,54.016667,-126.133331,719,COLLEYMOUNT,-1.765294925,28,-0.058333333,1.15,11,-0.85,5,12,-2,13,-7.150226244,0.1,-0.833333333,-0.4,0.8,-1.9,0.3,-0.433333333,-0.133333333,0.966666667,-0.2,-1.133333333,-0.566666667,0.633333333
1083285,SBSdk,53.916667,-125.916664,880,GRASSY PLAIN,1.787151248,-46,-0.320833333,-0.5,-2,-0.25,-21,6,-14,-17,-0.602870813,-0.483333333,-0.25,-0.2,-0.55,0.25,0.1,0.4,0.233333333,-0.1,-0.966666667,-0.9,-0.633333333,-1.1
108401,CWHds1,50.494167,-122.973053,237,GINGERBREAD,NA,NA,-0.725,-1.25,NA,-0.8,NA,NA,NA,NA,NA,-0.566666667,-0.633333333,-0.666666667,-1.033333333,0.55,-0.7,-0.966666667,-0.833333333,-0.366666667,-0.433333333,-0.4,-0.5,-1.7
1084050,CMAun,53.716667,-128.100006,1559,KEMANO KILDA,NA,NA,NA,-0.55,NA,NA,NA,NA,-2,64,NA,NA,NA,-0.333333333,-0.3,NA,NA,NA,-0.566666667,-0.333333333,NA,NA,0,-0.266666667
1084350,SBPSxc,51.983333,-124.933334,921,KLEENA KLEEN,2.824537037,-61,-0.879166667,-1.1,9,-0.55,-32,4,-15,-17,-8.272727273,-0.8,-0.566666667,-0.883333333,-1.366666667,0.55,-0.533333333,-0.266666667,-0.1,-0.733333333,-1.066666667,-0.866666667,-1.566666667,-2
1084490,IDFdc,50.833333,-122.866669,747,LAJOIE DAM,1.583462033,-28,-0.054166667,-0.6,-18,0.85,-14,-2,-12,1,28.53636364,-0.116666667,0.833333333,-0.033333333,-0.7,1.45,-0.633333333,0.333333333,-0.5,-0.5,0.4,1.233333333,0.433333333,-1
1084731,IDFdk4,51.82444,-124.466499,1005,LUNCH LAKE,1.954008439,-29,-0.104166667,-0.05,-4,-0.1,-15,-1,-5,-8,0.928089888,0,-0.1,-0.35,-0.166666667,-0.05,0.1,-0.033333333,-0.233333333,0.133333333,0,-0.266666667,-0.366666667,-0.466666667
1085208,IDFdw,51.6,-125,756,MOSLEY CREEK,4.764285714,-56,0.8625,2.1,-4,0.15,-15,3,-24,-20,4.845454545,0.8,0.15,0.516666667,1.783333333,-1.85,-0.266666667,-0.533333333,-0.4,0.5,1.866666667,0.833333333,1.433333333,3.166666667
1085281,SBSmc2,53.9,-126.949997,943,NADINA RIVER,NA,NA,-0.370833333,-1.2,-2,-0.35,NA,0,NA,NA,-0.922429907,-0.2,-0.4,-0.466666667,-0.516666667,0.95,-0.433333333,-0.533333333,-0.366666667,-0.533333333,0.033333333,-0.266666667,-0.466666667,-0.5
1085373,SBSmc2,54.1,-127.449997,764,NANIKA RIVER,NA,NA,NA,0.2,NA,NA,NA,NA,NA,NA,NA,NA,NA,-0.766666667,0.266666667,NA,NA,NA,-1.066666667,0,NA,NA,-0.366666667,0.533333333
1085415,SBSdk,53.683333,-124.833336,716,NECHAKO RIVE,NA,NA,-0.375,-0.45,16,-0.55,-6,6,7,NA,-6.571369295,-0.433333333,-0.5,-0.35,-0.116666667,-0.1,-0.233333333,-0.133333333,-0.133333333,-0.1,-0.633333333,-0.866666667,-0.666666667,-0.033333333
1085835,SBSdk,53.77217,-125.996597,867,OOTSA L SKIN,4.880208333,-70,0.154166667,0.5,-1,0.15,-30,0,-8,-32,0.896954315,0.566666667,0.05,-0.383333333,0.483333333,-0.35,0.366666667,-0.166666667,-0.466666667,0.5,0.666666667,0.366666667,-0.3,0.366666667
1085836,SBSdk,53.77189,-125.996696,862,OOTSA LAKESK,-0.949233716,36,0.4375,0.7,-12,0.45,33,4,-27,26,7.075268817,0.933333333,0.316666667,-0.266666667,0.866666667,-0.15,0.1,-0.666666667,-0.866666667,0.5,1.666666667,1.4,0.333333333,1.233333333
1086082,CWHds1,50.3025,-122.737801,203,PEMBERTON AI,0.741169854,-12,0.45,1.15,10,0.35,-14,14,4,-15,-2.767772512,0.3,0.333333333,0.283333333,0.783333333,-0.8,0.466666667,0.3,0.633333333,1.2,0.233333333,0.266666667,-0.066666667,0.366666667
1086083,CWHds1,50.316667,-122.816666,524,PEMBERTON BC,-0.064102564,56,0.775,-0.45,13,1.85,-5,16,2,43,3.507079646,0.116666667,1.683333333,1.483333333,-0.383333333,2.2,0.266666667,2.266666667,1.633333333,-0.466666667,0.066666667,1.2,1.233333333,-0.2
1086090,CWHds1,50.45,-122.933334,242,PEMBERTON ME,-1.522329163,62,-0.4875,-1.6,-7,0.9,11,12,-3,42,7.869387755,-0.95,0.233333333,0.25,-1.583333333,2.5,-1.033333333,0.466666667,-0.333333333,-1.7,-0.866666667,0,0.833333333,-1.366666667
1086550,SBPSdc,52.99167,-122.955299,919,PUNTCHESAKUT,1.665095628,-37,-0.145833333,-0.2,-5,-0.05,-8,-2,-8,-20,0.691044776,-0.133333333,-0.066666667,0.033333333,-0.316666667,0.05,-0.066666667,0,0,0.333333333,-0.3,-0.133333333,0.066666667,-0.966666667
1086556,IDFdk4,52.116667,-124.083336,907,PUNTZI MOUNT,-2.846560847,-1,-0.966666667,-1.95,18,-0.4,-3,12,3,-13,-11.91609195,-1.016666667,-0.383333333,-0.7,-1.566666667,1.65,-0.4,-0.066666667,-0.2,-0.633333333,-1.633333333,-0.7,-1.3,-2.6
1086695,IDFxm,52.15,-123.699997,874,REDSTONE STU,1.277885653,-29,-0.783333333,-1.8,7,-0.3,-15,6,-8,-12,-4.805263158,-0.75,-0.3,-0.266666667,-1.716666667,1.5,-0.266666667,0.233333333,0.5,-1.066666667,-1.333333333,-0.733333333,-0.933333333,-2.466666667
1087600,SBSdk,54.033333,-125.76667,719,SOUTHBANK,1.575457875,-4,0.620833333,1.4,17,0.5,-9,12,3,-9,-3.076712329,0.683333333,0.283333333,0.033333333,1.283333333,-0.9,0.033333333,-0.166666667,-0.433333333,0.3,1.333333333,0.833333333,0.5,2.266666667
1087950,CWHws2,53.616667,-127.699997,966,TAHTSA LAKE,-1.728505393,478,0.5,1.15,37,0.1,181,9,56,232,-2.299531616,0.55,0.083333333,0.183333333,1.183333333,-1.05,0.4,0.2,0.133333333,0.933333333,0.7,-0.033333333,0.233333333,1.533333333
1087974,SBSdk,53.866667,-125.866669,899,TAKYSIE LAKE,-3.394784173,43,-0.7875,-0.5,30,-1.15,11,16,11,5,-12.29674797,-0.933333333,-0.966666667,-0.9,-0.45,-0.65,-0.1,-0.166666667,-0.033333333,0.2,-1.866666667,-1.866666667,-1.666666667,-1
1088007,SBSdk,53.3,-124.73333,936,TATELKUZ LAK,NA,NA,NA,-0.2,NA,NA,NA,NA,NA,NA,NA,NA,NA,-0.383333333,-0.183333333,NA,NA,NA,0.2,0.233333333,NA,NA,-0.866666667,-0.5
1088009,SBPSxc,51.9,-124.599998,921,TATLA LAKE B,1.155365622,-32,-0.704166667,-1.05,-26,-0.2,6,-11,-4,-22,16.76030534,-1.133333333,-0.25,-0.366666667,-1.066666667,0.85,-1.2,-0.566666667,-0.366666667,-0.966666667,-1.066666667,-0.033333333,-0.366666667,-1.166666667
1088010,IDFdw,51.666667,-124.400002,853,TATLAYOKO LA,-2.918535127,44,0.208333333,1.65,9,-0.45,14,9,5,15,-7.469461078,0.083333333,-0.45,0.116666667,1.283333333,-2,-0.233333333,-0.666666667,-0.1,0.666666667,0.4,-0.233333333,0.333333333,1.9
1088015,IDFdw,51.67456,-124.403099,864,TATLAYOKO LA,10.15897436,-85,0.416666667,1.15,-61,0,0,-43,-22,-19,52.07669903,0.483333333,-0.133333333,-0.166666667,1.383333333,-1.15,0.366666667,0.166666667,-0.566666667,0.966666667,0.6,-0.433333333,0.333333333,1.9
1088970,SBSdk,53.833333,-126.216667,899,WISTARIA,3.890654206,-49,0.35,0.35,6,0.35,-21,3,-10,-21,0.162135922,0.483333333,0.333333333,0.033333333,0.55,0,0.266666667,-0.033333333,-0.033333333,0.366666667,0.8,0.6,0.2,0.733333333
109015,ESSFmv1,53.818056,-123.97361,1465,SINKUT LO,NA,NA,NA,NA,NA,0.6,NA,NA,NA,NA,NA,NA,0.483333333,NA,NA,NA,NA,-0.566666667,NA,NA,NA,1.433333333,NA,NA
109019,SBSmw,53.630833,-122.955559,999,BALDY HUGHES,NA,NA,NA,NA,NA,0.35,NA,NA,NA,NA,NA,-0.033333333,0.433333333,-0.033333333,NA,NA,-1.2,-0.933333333,-1.2,-0.733333333,1.033333333,1.8,1.233333333,NA
109022,SBPSdc,53.341667,-123.630554,847,PELICAN LAKE,NA,NA,-0.7,-1.1,NA,-0.6,NA,NA,NA,NA,NA,-0.783333333,-0.533333333,-0.516666667,-0.966666667,0.5,0.066666667,0.466666667,0.166666667,-0.233333333,-1.633333333,-1.633333333,-1.1,-1.8
1090300,SBSwk1,54.116667,-122.066666,615,ALEZA LAKE,-1.455307263,57,-0.2875,-0.75,7,-0.15,14,3,7,33,-1.337681159,-0.133333333,-0.116666667,-0.45,-0.55,0.6,-0.166666667,0,-0.133333333,-0.333333333,-0.2,-0.133333333,-0.766666667,-0.866666667
109032,SBPSmk,53.026389,-122.744446,1301,MILBURN LO,NA,NA,NA,NA,NA,0.45,NA,NA,NA,NA,NA,NA,0.416666667,NA,NA,NA,NA,-0.533333333,NA,NA,NA,1.266666667,NA,NA
109040,SBSmh,52.795833,-122.455559,459,AUSTRALIAN,NA,NA,NA,NA,NA,-0.25,NA,NA,NA,NA,NA,NA,-0.083333333,NA,NA,NA,NA,-0.1,NA,NA,NA,-0.166666667,NA,NA
109043,SBSdw1,52.880556,-122.341667,1197,DRAGON LO,NA,NA,NA,NA,NA,0.7,NA,NA,NA,NA,NA,NA,0.433333333,NA,NA,NA,NA,-0.633333333,NA,NA,NA,1.6,NA,NA
109066,SBSmk1,53.329167,-122.25972,895,NAVER 115,NA,NA,-0.895833333,-1.95,NA,-0.45,NA,NA,NA,NA,NA,-0.583333333,-0.633333333,-0.833333333,-1.633333333,1.5,0.2,0.266666667,0,-0.966666667,-1.366666667,-1.433333333,-1.766666667,-2.4
1090660,ESSFwk1,53.06917,-121.514702,1280,BARKERVILLE,-1.408087754,52,-0.695833333,-0.95,24,-0.65,22,11,4,14,-3.143778802,-0.616666667,-0.55,-0.666666667,-1.05,0.3,-0.1,-0.3,-0.4,-0.1,-1.033333333,-0.9,-0.933333333,-1.9
